$GNGGA,122000.000,5939.1381,N,01756.3632,E,1,18,0.7,42.3,M,25.4,M,,0000*77
$GNGLL,5939.1381,N,01756.3632,E,122000.000,A,A*4A
$GNGSA,A,3,14,17,21,02,03,22,32,08,10,24,,,1.3,0.7,1.1*26
$GNGSA,A,3,86,85,87,71,70,77,78,69,,,,,1.3,0.7,1.1*24
$GPGSV,3,1,11,21,77,179,43,02,73,260,45,32,48,081,47,10,25,069,41*78
$GPGSV,3,2,11,03,25,238,41,08,25,186,41,17,23,316,44,36,22,174,44*71
$GPGSV,3,3,11,22,21,309,43,14,17,286,42,24,08,009,42*4F
$GLGSV,3,1,09,70,74,111,31,86,71,298,45,85,49,138,44,71,36,195,40*63
$GLGSV,3,2,09,87,20,311,43,78,20,001,40,69,20,037,39,77,13,302,35*6A
$GLGSV,3,3,09,79,03,047,30*51
$GNRMC,122000.000,A,5939.1381,N,01756.3632,E,010.4,256.6,250624,,,A*78
$GNVTG,256.6,T,,M,010.4,N,019.3,K,A*1A
$GNZDA,122000.000,25,06,2024,00,00*4C
$PSTI,20,1,1,1,0,A,0,1,26.63,100.00,-6.10,0.00*47
$GNGGA,122001.000,5939.1374,N,01756.3577,E,1,18,0.7,42.1,M,25.4,M,,0000*7C
$GNGLL,5939.1374,N,01756.3577,E,122001.000,A,A*43
$GNGSA,A,3,14,17,21,02,03,22,32,08,10,24,,,1.3,0.7,1.1*26
$GNGSA,A,3,86,85,87,71,70,77,78,69,,,,,1.3,0.7,1.1*24
$GNRMC,122001.000,A,5939.1374,N,01756.3577,E,010.6,259.5,250624,,,A*7F
$GNVTG,259.5,T,,M,010.6,N,019.6,K,A*11
$GNZDA,122001.000,25,06,2024,00,00*4D
$PSTI,20,1,1,1,0,A,0,1,26.63,100.00,3.08,0.00*66
$GNGGA,122002.000,5939.1368,N,01756.3521,E,1,18,0.7,41.9,M,25.4,M,,0000*7A
$GNGLL,5939.1368,N,01756.3521,E,122002.000,A,A*4E
$GNGSA,A,3,14,17,21,02,03,22,32,08,10,24,,,1.3,0.7,1.1*26
$GNGSA,A,3,86,85,87,71,70,77,78,69,,,,,1.3,0.7,1.1*24
$GNRMC,122002.000,A,5939.1368,N,01756.3521,E,010.1,262.5,250624,,,A*7D
$GNVTG,262.5,T,,M,010.1,N,018.7,K,A*1E
$GNZDA,122002.000,25,06,2024,00,00*4E
$PSTI,20,1,1,1,0,A,0,1,26.63,100.00,3.09,0.00*67
$GNGGA,122003.000,5939.1365,N,01756.3468,E,1,18,0.7,41.6,M,25.4,M,,0000*75
$GNGLL,5939.1365,N,01756.3468,E,122003.000,A,A*4E
$GNGSA,A,3,14,17,21,02,03,22,32,08,10,24,,,1.3,0.7,1.1*26
$GNGSA,A,3,86,85,87,71,70,77,78,69,,,,,1.3,0.7,1.1*24
$GPGSV,3,1,11,21,77,179,43,02,73,260,45,32,48,081,46,10,25,069,40*78
$GPGSV,3,2,11,03,25,238,40,08,25,186,41,17,23,316,44,36,22,174,44*70
$GPGSV,3,3,11,22,21,309,43,14,17,286,43,24,08,009,43*4F
$GLGSV,3,1,09,70,74,111,32,86,71,298,46,85,49,138,44,71,36,195,39*6D
$GLGSV,3,2,09,87,20,311,44,78,20,001,40,69,20,037,39,77,13,302,37*6F
$GLGSV,3,3,09,79,03,047,30*51
$GNRMC,122003.000,A,5939.1365,N,01756.3468,E,009.6,264.1,250624,,,A*70
$GNVTG,264.1,T,,M,009.6,N,017.7,K,A*1C
$GNZDA,122003.000,25,06,2024,00,00*4F
$PSTI,20,1,1,1,0,A,0,1,26.63,100.00,1.74,0.00*6F
$GNGGA,122004.000,5939.1359,N,01756.3419,E,1,18,0.7,41.4,M,25.4,M,,0000*79
$GNGLL,5939.1359,N,01756.3419,E,122004.000,A,A*40
$GNGSA,A,3,14,17,21,02,03,22,32,08,10,24,,,1.3,0.7,1.1*26
$GNGSA,A,3,86,85,87,71,70,77,78,69,,,,,1.3,0.7,1.1*24
$GNRMC,122004.000,A,5939.1359,N,01756.3419,E,009.1,256.3,250624,,,A*7A
$GNVTG,256.3,T,,M,009.1,N,016.9,K,A*17
$GNZDA,122004.000,25,06,2024,00,00*48
$PSTI,20,1,1,1,0,A,0,1,26.63,100.00,-7.71,0.00*41
$GNGGA,122005.000,5939.1352,N,01756.3369,E,1,18,0.7,41.2,M,25.4,M,,0000*75
$GNGLL,5939.1352,N,01756.3369,E,122005.000,A,A*4A
$GNGSA,A,3,14,17,21,02,03,22,32,08,10,24,,,1.3,0.7,1.1*26
$GNGSA,A,3,86,85,87,71,70,77,78,69,,,,,1.3,0.7,1.1*24
$GNRMC,122005.000,A,5939.1352,N,01756.3369,E,009.6,254.9,250624,,,A*7F
$GNVTG,254.9,T,,M,009.6,N,017.8,K,A*18
$GNZDA,122005.000,25,06,2024,00,00*49
$PSTI,20,1,1,1,0,A,0,1,26.63,100.00,-1.37,0.00*45
$GNGGA,122006.000,5939.1345,N,01756.3317,E,1,18,0.7,41.1,M,25.4,M,,0000*7A
$GNGLL,5939.1345,N,01756.3317,E,122006.000,A,A*46
$GNGSA,A,3,14,17,21,02,03,22,32,08,10,24,,,1.3,0.7,1.1*26
$GNGSA,A,3,86,85,87,71,70,77,78,69,,,,,1.3,0.7,1.1*24
$GPGSV,3,1,11,21,77,179,43,02,73,260,45,32,48,081,47,10,25,069,41*78
$GPGSV,3,2,11,03,25,238,42,08,25,186,41,17,23,316,44,36,22,174,42*74
$GPGSV,3,3,11,22,21,309,43,14,17,286,44,24,08,009,40*4B
$GLGSV,3,1,09,70,74,111,33,86,71,298,46,85,49,138,45,71,36,195,41*62
$GLGSV,3,2,09,87,20,311,44,78,20,001,38,69,20,037,40,77,13,302,36*6F
$GLGSV,3,3,09,79,03,047,31*50
$GNRMC,122006.000,A,5939.1345,N,01756.3317,E,009.9,261.3,250624,,,A*70
$GNVTG,261.3,T,,M,009.9,N,018.4,K,A*18
$GNZDA,122006.000,25,06,2024,00,00*4A
$PSTI,20,1,1,1,0,A,0,1,26.63,100.00,6.57,0.00*69
$GNGGA,122007.000,5939.1342,N,01756.3263,E,1,18,0.7,41.0,M,25.4,M,,0000*7F
$GNGLL,5939.1342,N,01756.3263,E,122007.000,A,A*42
$GNGSA,A,3,14,17,21,02,03,22,32,08,10,24,,,1.3,0.7,1.1*26
$GNGSA,A,3,86,85,87,71,70,77,78,69,,,,,1.3,0.7,1.1*24
$GNRMC,122007.000,A,5939.1342,N,01756.3263,E,010.1,268.7,250624,,,A*79
$GNVTG,268.7,T,,M,010.1,N,018.7,K,A*16
$GNZDA,122007.000,25,06,2024,00,00*4B
$PSTI,20,1,1,1,0,A,0,1,26.63,100.00,7.46,0.00*68
$GNGGA,122008.000,5939.1343,N,01756.3210,E,1,18,0.7,40.9,M,25.4,M,,0000*7D
$GNGLL,5939.1343,N,01756.3210,E,122008.000,A,A*48
$GNGSA,A,3,14,17,21,02,03,22,32,08,10,24,,,1.3,0.7,1.1*26
$GNGSA,A,3,86,85,87,71,70,77,78,69,,,,,1.3,0.7,1.1*24
$GNRMC,122008.000,A,5939.1343,N,01756.3210,E,010.2,276.3,250624,,,A*7B
$GNVTG,276.3,T,,M,010.2,N,018.9,K,A*10
$GNZDA,122008.000,25,06,2024,00,00*44
$PSTI,20,1,1,1,0,A,0,1,26.63,100.00,7.60,0.00*6C
$GNGGA,122009.000,5939.1349,N,01756.3157,E,1,18,0.7,40.8,M,25.4,M,,0000*77
$GNGLL,5939.1349,N,01756.3157,E,122009.000,A,A*43
$GNGSA,A,3,14,17,21,02,03,22,32,08,10,24,,,1.3,0.7,1.1*26
$GNGSA,A,3,86,85,87,71,70,77,78,69,,,,,1.3,0.7,1.1*24
$GPGSV,3,1,12,21,77,179,44,02,73,260,44,32,48,081,46,10,25,069,40*7D
$GPGSV,3,2,12,03,25,238,40,08,25,186,41,17,23,316,44,36,22,174,43*74
$GPGSV,3,3,12,22,21,309,42,14,17,286,43,24,08,009,37,28,00,000,36*71
$GLGSV,3,1,09,70,74,109,35,86,71,298,45,85,49,138,48,71,37,195,40*63
$GLGSV,3,2,09,87,20,311,47,78,20,001,41,69,20,037,38,77,13,302,35*6E
$GLGSV,3,3,09,79,03,047,34*55
$GNRMC,122009.000,A,5939.1349,N,01756.3157,E,010.5,289.5,250624,,,A*71
$GNVTG,289.5,T,,M,010.5,N,019.4,K,A*1D
$GNZDA,122009.000,25,06,2024,00,00*45
$PSTI,20,1,1,1,0,A,0,1,26.63,100.00,13.27,0.00*5A
$GNGGA,122010.000,5939.1361,N,01756.3111,E,1,18,0.7,40.9,M,25.4,M,,0000*76
$GNGLL,5939.1361,N,01756.3111,E,122010.000,A,A*43
$GNGSA,A,3,14,17,21,02,03,22,32,08,10,24,,,1.3,0.7,1.1*26
$GNGSA,A,3,86,85,87,71,70,77,78,69,,,,,1.3,0.7,1.1*24
$GNRMC,122010.000,A,5939.1361,N,01756.3111,E,010.4,304.3,250624,,,A*72
$GNVTG,304.3,T,,M,010.4,N,019.3,K,A*19
$GNZDA,122010.000,25,06,2024,00,00*4D
$PSTI,20,1,1,1,0,A,0,1,26.63,100.00,14.82,0.00*52
$GNGGA,122011.000,5939.1379,N,01756.3073,E,1,18,0.7,40.9,M,25.4,M,,0000*7B
$GNGLL,5939.1379,N,01756.3073,E,122011.000,A,A*4E
$GNGSA,A,3,14,17,21,02,03,22,32,08,10,24,,,1.3,0.7,1.1*26
$GNGSA,A,3,86,85,87,71,70,77,78,69,,,,,1.3,0.7,1.1*24
$GNRMC,122011.000,A,5939.1379,N,01756.3073,E,010.5,318.9,250624,,,A*79
$GNVTG,318.9,T,,M,010.5,N,019.4,K,A*18
$GNZDA,122011.000,25,06,2024,00,00*4C
$PSTI,20,1,1,1,0,A,0,1,26.63,100.00,14.54,0.00*59
$GNGGA,122012.000,5939.1401,N,01756.3040,E,1,17,0.7,40.9,M,25.4,M,,0000*7F
$GNGLL,5939.1401,N,01756.3040,E,122012.000,A,A*45
$GNGSA,A,3,14,17,21,02,03,22,32,08,10,24,,,1.3,0.7,1.1*26
$GNGSA,A,3,86,85,87,71,70,78,69,,,,,,1.3,0.7,1.1*24
$GPGSV,3,1,12,21,77,179,42,02,73,260,44,32,48,081,44,10,25,069,45*7C
$GPGSV,3,2,12,03,25,238,42,08,25,186,43,17,23,316,44,36,22,174,42*75
$GPGSV,3,3,12,22,21,309,42,14,17,286,40,24,08,009,37,28,00,000,39*7D
$GLGSV,3,1,09,70,74,109,37,86,71,298,44,85,49,138,44,71,37,195,42*6E
$GLGSV,3,2,09,87,20,311,43,78,20,001,48,69,20,037,42,77,13,302,24*6E
$GLGSV,3,3,09,79,03,047,33*52
$GNRMC,122012.000,A,5939.1401,N,01756.3040,E,010.7,325.7,250624,,,A*70
$GNVTG,325.7,T,,M,010.7,N,019.8,K,A*16
$GNZDA,122012.000,25,06,2024,00,00*4F
$PSTI,20,1,1,1,0,A,0,1,26.63,100.00,6.73,0.00*6F
$GNGGA,122013.000,5939.1425,N,01756.3011,E,1,17,0.7,41.0,M,25.4,M,,0000*74
$GNGLL,5939.1425,N,01756.3011,E,122013.000,A,A*46
$GNGSA,A,3,14,17,21,02,03,22,32,08,10,24,,,1.3,0.7,1.1*26
$GNGSA,A,3,86,85,87,71,70,78,69,,,,,,1.3,0.7,1.1*24
$GNRMC,122013.000,A,5939.1425,N,01756.3011,E,010.8,331.6,250624,,,A*78
$GNVTG,331.6,T,,M,010.8,N,019.9,K,A*1C
$GNZDA,122013.000,25,06,2024,00,00*4E
$PSTI,20,1,1,1,0,A,0,1,26.63,100.00,5.88,0.00*68
$GNGGA,122014.000,5939.1452,N,01756.2988,E,1,17,0.7,41.2,M,25.4,M,,0000*79
$GNGLL,5939.1452,N,01756.2988,E,122014.000,A,A*49
$GNGSA,A,3,14,17,21,02,03,22,32,08,10,24,,,1.3,0.7,1.1*26
$GNGSA,A,3,86,85,87,71,70,78,69,,,,,,1.3,0.7,1.1*24
$GNRMC,122014.000,A,5939.1452,N,01756.2988,E,010.8,337.2,250624,,,A*75
$GNVTG,337.2,T,,M,010.8,N,020.0,K,A*1D
$GNZDA,122014.000,25,06,2024,00,00*49
$PSTI,20,1,1,1,0,A,0,1,26.63,100.00,5.46,0.00*6A
$GNGGA,122015.000,5939.1479,N,01756.2964,E,1,17,0.7,41.2,M,25.4,M,,0000*73
$GNGLL,5939.1479,N,01756.2964,E,122015.000,A,A*43
$GNGSA,A,3,14,17,21,02,03,22,32,08,10,24,,,1.3,0.7,1.1*26
$GNGSA,A,3,86,85,87,71,70,78,69,,,,,,1.3,0.7,1.1*24
$GPGSV,3,1,12,21,77,179,43,02,73,260,44,32,48,081,45,10,25,069,46*7F
$GPGSV,3,2,12,03,25,238,41,08,25,186,42,17,23,316,43,36,22,174,41*73
$GPGSV,3,3,12,22,21,309,42,14,17,286,28,24,08,009,31,28,00,000,37*7B
$GLGSV,3,1,09,70,74,109,36,86,71,298,44,85,49,138,45,71,37,195,48*64
$GLGSV,3,2,09,87,20,311,40,78,20,001,48,69,20,037,46,77,13,302,20*6D
$GLGSV,3,3,09,79,03,047,31*50
$GNRMC,122015.000,A,5939.1479,N,01756.2964,E,010.4,332.8,250624,,,A*7C
$GNVTG,332.8,T,,M,010.4,N,019.3,K,A*17
$GNZDA,122015.000,25,06,2024,00,00*48
$PSTI,20,1,1,1,0,A,0,1,26.63,100.00,-4.59,0.00*48
$GNGGA,122016.000,5939.1504,N,01756.2937,E,1,17,0.7,41.2,M,25.4,M,,0000*7D
$GNGLL,5939.1504,N,01756.2937,E,122016.000,A,A*4D
$GNGSA,A,3,14,17,21,02,03,22,32,08,10,24,,,1.3,0.7,1.1*26
$GNGSA,A,3,86,85,87,71,70,78,69,,,,,,1.3,0.7,1.1*24
$GNRMC,122016.000,A,5939.1504,N,01756.2937,E,010.1,329.8,250624,,,A*7D
$GNVTG,329.8,T,,M,010.1,N,018.8,K,A*12
$GNZDA,122016.000,25,06,2024,00,00*4B
$PSTI,20,1,1,1,0,A,0,1,26.63,100.00,-3.08,0.00*4B
$GNGGA,122017.000,5939.1528,N,01756.2910,E,1,17,0.7,41.2,M,25.4,M,,0000*77
$GNGLL,5939.1528,N,01756.2910,E,122017.000,A,A*47
$GNGSA,A,3,14,17,21,02,03,22,32,08,10,24,,,1.3,0.7,1.1*26
$GNGSA,A,3,86,85,87,71,70,78,69,,,,,,1.3,0.7,1.1*24
$GNRMC,122017.000,A,5939.1528,N,01756.2910,E,010.0,330.3,250624,,,A*75
$GNVTG,330.3,T,,M,010.0,N,018.4,K,A*1C
$GNZDA,122017.000,25,06,2024,00,00*4A
$PSTI,20,1,1,1,0,A,0,1,26.63,100.00,0.45,0.00*6C
$GNGGA,122018.000,5939.1553,N,01756.2885,E,1,17,0.7,41.1,M,25.4,M,,0000*7A
$GNGLL,5939.1553,N,01756.2885,E,122018.000,A,A*49
$GNGSA,A,3,14,17,21,02,03,22,32,08,10,24,,,1.3,0.7,1.1*26
$GNGSA,A,3,86,85,87,71,70,78,69,,,,,,1.3,0.7,1.1*24
$GPGSV,3,1,12,21,77,179,42,02,73,260,44,32,48,081,43,10,25,069,43*7D
$GPGSV,3,2,12,03,25,238,43,08,25,186,41,17,23,316,42,36,22,174,40*72
$GPGSV,3,3,12,22,21,309,36,14,17,286,27,24,08,009,41,28,00,000,39*7E
$GLGSV,3,1,09,70,74,109,36,86,71,298,44,85,49,138,45,71,37,195,47*6B
$GLGSV,3,2,09,87,20,311,40,78,20,001,49,69,20,037,38,77,13,302,18*6E
$GLGSV,3,3,09,79,03,047,34*55
$GNRMC,122018.000,A,5939.1553,N,01756.2885,E,009.5,331.8,250624,,,A*7C
$GNVTG,331.8,T,,M,009.5,N,017.6,K,A*16
$GNZDA,122018.000,25,06,2024,00,00*45
$PSTI,20,1,1,1,0,A,0,1,26.63,100.00,1.31,0.00*6E
$GNGGA,122019.000,5939.1577,N,01756.2861,E,1,17,0.7,41.0,M,25.4,M,,0000*76
$GNGLL,5939.1577,N,01756.2861,E,122019.000,A,A*44
$GNGSA,A,3,14,17,21,02,03,22,32,08,10,24,,,1.3,0.7,1.1*26
$GNGSA,A,3,86,85,87,71,70,78,69,,,,,,1.3,0.7,1.1*24
$GNRMC,122019.000,A,5939.1577,N,01756.2861,E,008.8,331.3,250624,,,A*76
$GNVTG,331.3,T,,M,008.8,N,016.2,K,A*14
$GNZDA,122019.000,25,06,2024,00,00*44
$PSTI,20,1,1,1,0,A,0,1,26.63,100.00,-0.64,0.00*42
$GNGGA,122020.000,5939.1603,N,01756.2831,E,1,16,0.7,41.0,M,25.4,M,,0000*78
$GNGLL,5939.1603,N,01756.2831,E,122020.000,A,A*4B
$GNGSA,A,3,14,17,21,02,03,22,32,08,10,24,,,1.3,0.7,1.1*26
$GNGSA,A,3,86,85,71,70,78,69,,,,,,,1.3,0.7,1.1*2B
$GNRMC,122020.000,A,5939.1603,N,01756.2831,E,008.8,324.7,250624,,,A*79
$GNVTG,324.7,T,,M,008.8,N,016.3,K,A*15
$GNZDA,122020.000,25,06,2024,00,00*4E
$PSTI,20,1,1,1,0,A,0,1,26.63,100.00,-6.64,0.00*44
$GNGGA,122021.000,5939.1626,N,01756.2797,E,1,16,0.7,40.9,M,25.4,M,,0000*75
$GNGLL,5939.1626,N,01756.2797,E,122021.000,A,A*4E
$GNGSA,A,3,14,17,21,02,03,22,32,08,10,24,,,1.3,0.7,1.1*26
$GNGSA,A,3,86,85,71,70,78,69,,,,,,,1.3,0.7,1.1*2B
$GPGSV,3,1,12,21,77,179,43,02,73,260,45,32,48,081,48,10,25,069,45*70
$GPGSV,3,2,12,03,25,238,28,08,25,186,43,17,23,316,32,36,22,174,42*78
$GPGSV,3,3,12,22,21,309,26,14,17,286,25,24,08,009,40,28,00,000,34*71
$GLGSV,3,1,09,70,74,109,36,86,71,298,45,85,49,138,44,71,37,195,43*6F
$GLGSV,3,2,09,87,20,311,25,78,20,001,48,69,20,037,44,77,13,302,14*6B
$GLGSV,3,3,09,79,03,047,36*57
$GNRMC,122021.000,A,5939.1626,N,01756.2797,E,009.2,316.5,250624,,,A*74
$GNVTG,316.5,T,,M,009.2,N,017.1,K,A*1E
$GNZDA,122021.000,25,06,2024,00,00*4F
$PSTI,20,1,1,1,0,A,0,1,26.63,100.00,-8.13,0.00*4A
$GNGGA,122022.000,5939.1643,N,01756.2757,E,1,14,0.8,40.8,M,25.4,M,,0000*75
$GNGLL,5939.1643,N,01756.2757,E,122022.000,A,A*42
$GNGSA,A,3,14,21,02,03,32,08,10,24,,,,,1.3,0.8,1.1*2F
$GNGSA,A,3,86,85,71,70,78,69,,,,,,,1.3,0.8,1.1*24
$GNRMC,122022.000,A,5939.1643,N,01756.2757,E,009.1,307.1,250624,,,A*7F
$GNVTG,307.1,T,,M,009.1,N,016.9,K,A*10
$GNZDA,122022.000,25,06,2024,00,00*4C
$PSTI,20,1,1,1,0,A,0,1,26.63,100.00,-9.42,0.00*4F
$GNGGA,122023.000,5939.1657,N,01756.2713,E,1,14,0.8,40.7,M,25.4,M,,0000*7E
$GNGLL,5939.1657,N,01756.2713,E,122023.000,A,A*46
$GNGSA,A,3,14,17,21,02,03,32,10,24,,,,,1.5,0.8,1.2*24
$GNGSA,A,3,86,85,71,70,78,69,,,,,,,1.5,0.8,1.2*21
$GNRMC,122023.000,A,5939.1657,N,01756.2713,E,008.9,296.2,250624,,,A*78
$GNVTG,296.2,T,,M,008.9,N,016.4,K,A*1E
$GNZDA,122023.000,25,06,2024,00,00*4D
$PSTI,20,1,1,1,0,A,0,1,26.63,100.00,-10.99,0.00*71
$GNGGA,122024.000,5939.1665,N,01756.2666,E,1,15,0.7,40.6,M,25.4,M,,0000*74
$GNGLL,5939.1665,N,01756.2666,E,122024.000,A,A*43
$GNGSA,A,3,14,17,21,02,03,32,08,10,24,,,,1.3,0.7,1.1*26
$GNGSA,A,3,86,85,71,70,78,69,,,,,,,1.3,0.7,1.1*2B
$GPGSV,3,1,12,21,77,179,30,02,73,260,41,32,48,081,47,10,25,069,42*78
$GPGSV,3,2,12,03,25,238,29,08,25,186,41,17,23,316,33,36,22,174,32*7D
$GPGSV,3,3,12,22,21,309,30,14,17,286,28,24,08,009,36,28,00,000,37*79
$GLGSV,3,1,09,70,74,109,32,86,72,298,39,85,49,139,35,71,37,195,39*69
$GLGSV,3,2,09,87,20,311,25,78,20,001,31,69,20,037,41,77,13,302,15*61
$GLGSV,3,3,09,79,03,047,36*57
$GNRMC,122024.000,A,5939.1665,N,01756.2666,E,008.5,283.4,250624,,,A*73
$GNVTG,283.4,T,,M,008.5,N,015.7,K,A*10
$GNZDA,122024.000,25,06,2024,00,00*4A
$PSTI,20,1,1,1,0,A,0,1,26.63,100.00,-12.78,0.00*7C
$GNGGA,122025.000,5939.1668,N,01756.2619,E,1,15,0.7,40.7,M,25.4,M,,0000*71
$GNGLL,5939.1668,N,01756.2619,E,122025.000,A,A*47
$GNGSA,A,3,14,21,02,03,22,32,08,10,24,,,,1.3,0.7,1.1*20
$GNGSA,A,3,86,85,87,71,70,69,,,,,,,1.3,0.7,1.1*2B
$GNRMC,122025.000,A,5939.1668,N,01756.2619,E,008.4,270.1,250624,,,A*7F
$GNVTG,270.1,T,,M,008.4,N,015.5,K,A*1A
$GNZDA,122025.000,25,06,2024,00,00*4B
$PSTI,20,1,1,1,0,A,0,1,26.63,100.00,-13.33,0.00*72
$GNGGA,122026.000,5939.1667,N,01756.2573,E,1,16,0.7,40.6,M,25.4,M,,0000*70
$GNGLL,5939.1667,N,01756.2573,E,122026.000,A,A*44
$GNGSA,A,3,14,21,02,03,22,32,08,10,24,,,,1.3,0.7,1.1*20
$GNGSA,A,3,86,85,87,71,70,78,69,,,,,,1.3,0.7,1.1*24
$GNRMC,122026.000,A,5939.1667,N,01756.2573,E,008.3,258.3,250624,,,A*73
$GNVTG,258.3,T,,M,008.3,N,015.4,K,A*14
$GNZDA,122026.000,25,06,2024,00,00*48
$PSTI,20,1,1,1,0,A,0,1,26.63,100.00,-11.81,0.00*79
$GNGGA,122027.000,5939.1667,N,01756.2524,E,1,15,0.7,40.6,M,25.4,M,,0000*70
$GNGLL,5939.1667,N,01756.2524,E,122027.000,A,A*47
$GNGSA,A,3,14,17,21,02,03,22,32,08,10,24,,,1.3,0.7,1.1*26
$GNGSA,A,3,86,85,71,70,69,,,,,,,,1.3,0.7,1.1*24
$GPGSV,3,1,12,21,77,179,39,02,73,259,27,32,48,081,42,10,25,069,37*7C
$GPGSV,3,2,12,03,25,238,31,08,25,186,31,17,23,316,31,36,22,174,28*7A
$GPGSV,3,3,12,22,21,309,32,14,17,286,29,24,08,009,33,28,00,000,40*7F
$GLGSV,3,1,09,70,74,109,31,86,72,298,34,85,49,139,44,71,37,195,29*60
$GLGSV,3,2,09,87,20,311,27,78,20,001,33,69,20,037,35,77,13,302,16*61
$GLGSV,3,3,09,79,03,047,39*58
$GNRMC,122027.000,A,5939.1667,N,01756.2524,E,008.3,256.0,250624,,,A*7D
$GNVTG,256.0,T,,M,008.3,N,015.3,K,A*1E
$GNZDA,122027.000,25,06,2024,00,00*49
$PSTI,20,1,1,1,0,A,0,1,26.63,100.00,-2.25,0.00*45
$GNGGA,122028.000,5939.1661,N,01756.2480,E,1,13,0.8,40.6,M,25.4,M,,0000*7F
$GNGLL,5939.1661,N,01756.2480,E,122028.000,A,A*41
$GNGSA,A,3,14,17,02,22,32,08,10,24,,,,,1.5,0.8,1.3*2D
$GNGSA,A,3,86,85,87,71,78,,,,,,,,1.5,0.8,1.3*27
$GNRMC,122028.000,A,5939.1661,N,01756.2480,E,008.2,256.7,250624,,,A*7D
$GNVTG,256.7,T,,M,008.2,N,015.1,K,A*1A
$GNZDA,122028.000,25,06,2024,00,00*46
$PSTI,20,1,1,1,0,A,0,1,26.63,100.00,0.78,0.00*62
$GNGGA,122029.000,5939.1656,N,01756.2437,E,1,12,0.8,40.6,M,25.4,M,,0000*77
$GNGLL,5939.1656,N,01756.2437,E,122029.000,A,A*48
$GNGSA,A,3,14,17,21,02,03,22,32,08,10,24,,,1.6,0.8,1.3*2E
$GNGSA,A,3,78,69,,,,,,,,,,,1.6,0.8,1.3*21
$GNRMC,122029.000,A,5939.1656,N,01756.2437,E,008.2,257.0,250624,,,A*72
$GNVTG,257.0,T,,M,008.2,N,015.2,K,A*1F
$GNZDA,122029.000,25,06,2024,00,00*47
$PSTI,20,1,1,1,0,A,0,1,26.63,100.00,0.22,0.00*6D
$GNGGA,122030.000,5939.1651,N,01756.2393,E,1,13,0.8,40.7,M,25.4,M,,0000*71
$GNGLL,5939.1651,N,01756.2393,E,122030.000,A,A*4E
$GNGSA,A,3,14,17,21,02,03,22,32,08,10,24,,,1.5,0.8,1.3*2D
$GNGSA,A,3,87,77,69,,,,,,,,,,1.5,0.8,1.3*22
$GPGSV,3,1,12,21,77,179,20,02,73,259,24,32,48,081,31,10,25,069,30*74
$GPGSV,3,2,12,03,25,238,27,08,24,186,25,17,23,316,28,36,22,174,21*78
$GPGSV,3,3,12,22,21,309,27,14,17,286,35,24,08,009,29,28,00,000,29*72
$GLGSV,3,1,09,70,74,109,19,86,72,298,24,85,49,139,24,71,37,195,24*60
$GLGSV,3,2,09,87,20,311,26,78,20,001,25,69,20,037,27,77,13,302,21*60
$GLGSV,3,3,09,79,03,047,33*52
$GNRMC,122030.000,A,5939.1651,N,01756.2393,E,008.1,256.6,250624,,,A*70
$GNVTG,256.6,T,,M,008.1,N,015.1,K,A*18
$GNZDA,122030.000,25,06,2024,00,00*4F
$PSTI,20,1,1,1,0,A,0,1,26.63,100.00,-0.39,0.00*4A
$GNGGA,122031.000,5939.1646,N,01756.2350,E,1,15,0.7,40.6,M,25.4,M,,0000*71
$GNGLL,5939.1646,N,01756.2350,E,122031.000,A,A*46
$GNGSA,A,3,14,17,21,02,03,22,32,08,10,24,,,1.3,0.7,1.1*26
$GNGSA,A,3,86,87,71,77,69,,,,,,,,1.3,0.7,1.1*21
$GNRMC,122031.000,A,5939.1646,N,01756.2350,E,008.1,256.1,250624,,,A*7F
$GNVTG,256.1,T,,M,008.1,N,015.0,K,A*1E
$GNZDA,122031.000,25,06,2024,00,00*4E
$PSTI,20,1,1,1,0,A,0,1,26.63,100.00,-0.43,0.00*47
$GNGGA,122032.000,5939.1640,N,01756.2307,E,1,15,0.8,40.7,M,25.4,M,,0000*78
$GNGLL,5939.1640,N,01756.2307,E,122032.000,A,A*41
$GNGSA,A,3,14,17,21,02,03,22,32,08,10,24,,,1.4,0.8,1.1*2E
$GNGSA,A,3,86,87,77,78,69,,,,,,,,1.4,0.8,1.1*20
$GNRMC,122032.000,A,5939.1640,N,01756.2307,E,008.1,255.7,250624,,,A*7D
$GNVTG,255.7,T,,M,008.1,N,015.0,K,A*1B
$GNZDA,122032.000,25,06,2024,00,00*4D
$PSTI,20,1,1,1,0,A,0,1,26.63,100.00,-0.45,0.00*41
$GNGGA,122033.000,5939.1637,N,01756.2295,E,1,15,0.7,40.8,M,25.4,M,,0000*73
$GNGLL,5939.1637,N,01756.2295,E,122033.000,A,A*4A
$GNGSA,A,3,14,17,21,02,03,22,08,10,24,,,,1.4,0.7,1.1*20
$GNGSA,A,3,86,85,87,77,78,69,,,,,,,1.4,0.7,1.1*22
$GPGSV,3,1,12,21,77,179,20,02,73,259,35,32,48,081,34,10,25,069,34*75
$GPGSV,3,2,12,03,25,238,28,08,24,186,27,17,23,316,39,36,22,174,27*73
$GPGSV,3,3,12,22,21,309,34,14,17,286,41,24,08,009,25,28,00,000,32*75
$GLGSV,3,1,09,70,74,109,17,86,72,298,33,85,49,139,23,71,37,195,22*69
$GLGSV,3,2,09,87,20,311,30,78,20,001,24,69,20,037,31,77,13,302,29*69
$GLGSV,3,3,09,79,03,047,30*51
$GNRMC,122033.000,A,5939.1637,N,01756.2295,E,007.1,254.8,250624,,,A*77
$GNVTG,254.8,T,,M,007.1,N,013.1,K,A*1D
$GNZDA,122033.000,25,06,2024,00,00*4C
$PSTI,20,1,1,1,0,A,0,1,26.63,100.00,-0.88,0.00*40
$GNGGA,122034.000,5939.1634,N,01756.2265,E,1,16,0.7,40.8,M,25.4,M,,0000*7B
$GNGLL,5939.1634,N,01756.2265,E,122034.000,A,A*41
$GNGSA,A,3,14,17,21,02,03,22,32,08,10,24,,,1.3,0.7,1.1*26
$GNGSA,A,3,86,87,71,77,78,69,,,,,,,1.3,0.7,1.1*2E
$GNRMC,122034.000,A,5939.1634,N,01756.2265,E,006.6,254.3,250624,,,A*71
$GNVTG,254.3,T,,M,006.6,N,012.2,K,A*12
$GNZDA,122034.000,25,06,2024,00,00*4B
$PSTI,20,1,1,1,0,A,0,1,26.63,100.00,-0.57,0.00*42
$GNGGA,122035.000,5939.1629,N,01756.2237,E,1,16,0.7,40.9,M,25.4,M,,0000*70
$GNGLL,5939.1629,N,01756.2237,E,122035.000,A,A*4B
$GNGSA,A,3,14,17,21,02,03,22,32,08,10,,,,1.3,0.7,1.1*20
$GNGSA,A,3,86,85,87,70,77,78,69,,,,,,1.3,0.7,1.1*22
$GNRMC,122035.000,A,5939.1629,N,01756.2237,E,006.0,254.6,250624,,,A*78
$GNVTG,254.6,T,,M,006.0,N,011.2,K,A*12
$GNZDA,122035.000,25,06,2024,00,00*4A
$PSTI,20,1,1,1,0,A,0,1,26.63,100.00,0.38,0.00*66
$GNGGA,122036.000,5939.1625,N,01756.2202,E,1,16,0.7,40.9,M,25.4,M,,0000*79
$GNGLL,5939.1625,N,01756.2202,E,122036.000,A,A*42
$GNGSA,A,3,14,17,21,02,03,22,32,08,10,,,,1.4,0.7,1.1*27
$GNGSA,A,3,86,85,87,71,70,77,78,,,,,,1.4,0.7,1.1*2C
$GPGSV,3,1,12,21,77,178,37,02,73,259,41,32,48,081,44,10,25,069,33*71
$GPGSV,3,2,12,03,25,238,32,08,24,186,27,17,23,316,41,36,22,174,27*77
$GPGSV,3,3,12,22,21,309,45,14,17,286,45,24,08,009,25,28,00,000,24*70
$GLGSV,3,1,09,70,74,109,33,86,72,298,39,85,49,139,29,71,37,195,28*65
$GLGSV,3,2,09,87,20,311,43,78,20,001,36,69,20,037,33,77,13,302,37*63
$GLGSV,3,3,09,79,03,047,25*55
$GNRMC,122036.000,A,5939.1625,N,01756.2202,E,006.5,259.3,250624,,,A*7C
$GNVTG,259.3,T,,M,006.5,N,012.1,K,A*1F
$GNZDA,122036.000,25,06,2024,00,00*49
$PSTI,20,1,1,1,0,A,0,1,26.63,100.00,4.48,0.00*65
$GNGGA,122037.000,5939.1623,N,01756.2150,E,1,16,0.7,41.0,M,25.4,M,,0000*72
$GNGLL,5939.1623,N,01756.2150,E,122037.000,A,A*41
$GNGSA,A,3,14,17,21,02,03,22,32,08,10,,,,1.3,0.7,1.1*20
$GNGSA,A,3,86,87,71,70,77,78,69,,,,,,1.3,0.7,1.1*29
$GNRMC,122037.000,A,5939.1623,N,01756.2150,E,007.2,263.8,250624,,,A*7B
$GNVTG,263.8,T,,M,007.2,N,013.4,K,A*1F
$GNZDA,122037.000,25,06,2024,00,00*48
$PSTI,20,1,1,1,0,A,0,1,26.63,100.00,4.43,0.00*6E
$GNGGA,122038.000,5939.1621,N,01756.2108,E,1,16,0.8,41.1,M,25.4,M,,0000*7C
$GNGLL,5939.1621,N,01756.2108,E,122038.000,A,A*41
$GNGSA,A,3,14,17,21,02,03,22,32,10,24,,,,1.5,0.8,1.2*24
$GNGSA,A,3,86,85,87,71,70,77,78,,,,,,1.5,0.8,1.2*21
$GNRMC,122038.000,A,5939.1621,N,01756.2108,E,007.4,267.1,250624,,,A*70
$GNVTG,267.1,T,,M,007.4,N,013.8,K,A*18
$GNZDA,122038.000,25,06,2024,00,00*47
$PSTI,20,1,1,1,0,A,0,1,26.63,100.00,3.34,0.00*69
$GNGGA,122039.000,5939.1626,N,01756.2030,E,1,16,0.8,41.1,M,25.4,M,,0000*70
$GNGLL,5939.1626,N,01756.2030,E,122039.000,A,A*4D
$GNGSA,A,3,14,17,21,02,03,22,32,08,,,,,1.4,0.8,1.1*29
$GNGSA,A,3,86,85,87,71,70,77,78,69,,,,,1.4,0.8,1.1*2C
$GPGSV,3,1,12,21,77,178,43,02,73,259,45,32,48,081,46,10,25,069,30*77
$GPGSV,3,2,12,03,25,238,34,08,24,186,25,17,23,316,38,36,22,174,25*7F
$GPGSV,3,3,12,22,21,309,46,14,17,286,45,24,08,009,26,28,00,000,25*71
$GLGSV,3,1,09,70,74,109,33,86,72,298,46,85,49,139,29,71,37,195,25*60
$GLGSV,3,2,09,87,20,311,44,78,20,001,42,69,20,037,33,77,13,302,38*68
$GLGSV,3,3,09,79,03,047,32*53
$GNRMC,122039.000,A,5939.1626,N,01756.2030,E,008.8,268.8,250624,,,A*79
$GNVTG,268.8,T,,M,008.8,N,016.3,K,A*13
$GNZDA,122039.000,25,06,2024,00,00*46
$PSTI,20,1,1,1,0,A,0,1,26.63,100.00,1.30,0.00*6F
$GNGGA,122040.000,5939.1623,N,01756.1968,E,1,15,0.9,41.1,M,25.4,M,,0000*7E
$GNGLL,5939.1623,N,01756.1968,E,122040.000,A,A*41
$GNGSA,A,3,14,21,02,03,22,32,10,24,,,,,1.6,0.9,1.3*21
$GNGSA,A,3,86,85,87,70,77,78,69,,,,,,1.6,0.9,1.3*2B
$GNRMC,122040.000,A,5939.1623,N,01756.1968,E,009.8,269.8,250624,,,A*75
$GNVTG,269.8,T,,M,009.8,N,018.2,K,A*1C
$GNZDA,122040.000,25,06,2024,00,00*48
$PSTI,20,1,1,1,0,A,0,1,26.63,100.00,1.17,0.00*6A
$GNGGA,122041.000,5939.1622,N,01756.1910,E,1,17,0.8,41.1,M,25.4,M,,0000*72
$GNGLL,5939.1622,N,01756.1910,E,122041.000,A,A*4E
$GNGSA,A,3,14,17,21,02,03,22,32,10,24,,,,1.4,0.8,1.2*25
$GNGSA,A,3,86,85,87,71,70,77,78,69,,,,,1.4,0.8,1.2*2F
$GNRMC,122041.000,A,5939.1622,N,01756.1910,E,010.1,271.1,250624,,,A*7B
$GNVTG,271.1,T,,M,010.1,N,018.7,K,A*18
$GNZDA,122041.000,25,06,2024,00,00*49
$PSTI,20,1,1,1,0,A,0,1,26.63,100.00,1.41,0.00*69
$GNGGA,122042.000,5939.1629,N,01756.1741,E,1,16,0.9,41.2,M,25.4,M,,0000*73
$GNGLL,5939.1629,N,01756.1741,E,122042.000,A,A*4C
$GNGSA,A,3,14,17,21,02,03,22,32,10,24,,,,1.6,0.9,1.3*27
$GNGSA,A,3,86,85,87,70,77,78,69,,,,,,1.6,0.9,1.3*2B
$GPGSV,3,1,12,21,77,178,44,02,73,259,45,32,47,080,46,10,25,069,41*78
$GPGSV,3,2,12,03,25,238,42,08,24,186,25,17,23,316,45,36,22,174,24*75
$GPGSV,3,3,12,22,21,309,45,14,17,286,46,24,08,009,35,28,00,000,23*75
$GLGSV,3,1,09,70,74,109,34,86,72,298,45,85,49,139,41,71,37,195,25*6A
$GLGSV,3,2,09,87,20,311,45,78,20,001,43,69,20,037,44,77,13,302,38*68
$GLGSV,3,3,09,79,03,047,26*56
$GNRMC,122042.000,A,5939.1629,N,01756.1741,E,011.7,272.5,250624,,,A*79
$GNVTG,272.5,T,,M,011.7,N,021.7,K,A*12
$GNZDA,122042.000,25,06,2024,00,00*4A
$PSTI,20,1,1,1,0,A,0,1,26.63,100.00,1.39,0.00*66
$GNGGA,122043.000,5939.1627,N,01756.1633,E,1,18,0.7,41.4,M,25.4,M,,0000*7E
$GNGLL,5939.1627,N,01756.1633,E,122043.000,A,A*47
$GNGSA,A,3,14,17,21,02,03,22,32,08,10,24,,,1.2,0.7,1.0*26
$GNGSA,A,3,86,85,87,71,70,77,78,69,,,,,1.2,0.7,1.0*24
$GNRMC,122043.000,A,5939.1627,N,01756.1633,E,012.3,272.9,250624,,,A*79
$GNVTG,272.9,T,,M,012.3,N,022.7,K,A*1A
$GNZDA,122043.000,25,06,2024,00,00*4B
$PSTI,20,1,1,1,0,A,0,1,26.63,100.00,1.42,0.00*6A
$GNGGA,122044.000,5939.1628,N,01756.1568,E,1,17,0.8,41.4,M,25.4,M,,0000*7B
$GNGLL,5939.1628,N,01756.1568,E,122044.000,A,A*42
$GNGSA,A,3,14,17,21,02,03,22,32,10,24,,,,1.4,0.8,1.2*25
$GNGSA,A,3,86,85,87,71,70,77,78,69,,,,,1.4,0.8,1.2*2F
$GNRMC,122044.000,A,5939.1628,N,01756.1568,E,012.0,272.5,250624,,,A*73
$GNVTG,272.5,T,,M,012.0,N,022.3,K,A*11
$GNZDA,122044.000,25,06,2024,00,00*4C
$PSTI,20,1,1,1,0,A,0,1,26.63,100.00,-0.17,0.00*46
$GNGGA,122045.000,5939.1616,N,01756.1476,E,1,16,0.9,41.6,M,25.4,M,,0000*7B
$GNGLL,5939.1616,N,01756.1476,E,122045.000,A,A*40
$GNGSA,A,3,14,17,21,02,03,22,32,10,24,,,,1.6,0.9,1.3*27
$GNGSA,A,3,86,85,87,70,77,78,69,,,,,,1.6,0.9,1.3*2B
$GPGSV,3,1,12,21,77,178,44,02,73,259,45,32,47,080,47,10,25,069,39*76
$GPGSV,3,2,12,03,25,238,41,08,24,186,26,17,23,316,45,36,22,174,23*72
$GPGSV,3,3,12,22,21,309,46,14,17,286,45,24,08,009,33,28,00,000,20*70
$GLGSV,3,1,09,70,74,109,34,86,72,298,46,85,49,139,46,71,37,195,35*6F
$GLGSV,3,2,09,87,20,311,44,78,20,001,42,69,19,037,33,77,13,302,36*6C
$GLGSV,3,3,09,79,03,047,30*51
$GNRMC,122045.000,A,5939.1616,N,01756.1476,E,012.8,269.7,250624,,,A*71
$GNVTG,269.7,T,,M,012.8,N,023.7,K,A*14
$GNZDA,122045.000,25,06,2024,00,00*4D
$PSTI,20,1,1,1,0,A,0,1,26.63,100.00,-2.19,0.00*4A
$GNGGA,122046.000,5939.1606,N,01756.1398,E,1,17,0.8,41.7,M,25.4,M,,0000*7F
$GNGLL,5939.1606,N,01756.1398,E,122046.000,A,A*45
$GNGSA,A,3,14,17,21,02,03,22,32,10,24,,,,1.4,0.8,1.2*25
$GNGSA,A,3,86,85,87,71,70,77,78,69,,,,,1.4,0.8,1.2*2F
$GNRMC,122046.000,A,5939.1606,N,01756.1398,E,012.9,267.2,250624,,,A*7E
$GNVTG,267.2,T,,M,012.9,N,024.0,K,A*1E
$GNZDA,122046.000,25,06,2024,00,00*4E
$PSTI,20,1,1,1,0,A,0,1,26.63,100.00,-2.15,0.00*46
$GNGGA,122047.000,5939.1597,N,01756.1325,E,1,17,0.8,41.7,M,25.4,M,,0000*73
$GNGLL,5939.1597,N,01756.1325,E,122047.000,A,A*49
$GNGSA,A,3,14,17,21,02,03,22,32,10,24,,,,1.4,0.8,1.2*25
$GNGSA,A,3,86,85,87,71,70,77,78,69,,,,,1.4,0.8,1.2*2F
$GNRMC,122047.000,A,5939.1597,N,01756.1325,E,012.6,269.3,250624,,,A*72
$GNVTG,269.3,T,,M,012.6,N,023.4,K,A*1D
$GNZDA,122047.000,25,06,2024,00,00*4F
$PSTI,20,1,1,1,0,A,0,1,26.63,100.00,2.74,0.00*6C
$GNGGA,122048.000,5939.1595,N,01756.1258,E,1,18,0.7,41.7,M,25.4,M,,0000*75
$GNGLL,5939.1595,N,01756.1258,E,122048.000,A,A*4F
$GNGSA,A,3,14,17,21,02,03,22,32,08,10,24,,,1.2,0.7,1.0*26
$GNGSA,A,3,86,85,87,71,70,77,78,69,,,,,1.2,0.7,1.0*24
$GPGSV,3,1,11,21,77,178,44,02,73,259,45,32,47,080,46,10,25,069,42*78
$GPGSV,3,2,11,03,25,238,42,08,24,186,26,17,23,316,25,22,21,309,46*79
$GPGSV,3,3,11,14,17,286,44,24,08,009,35,28,00,000,26*49
$GLGSV,3,1,09,70,74,108,34,86,72,298,46,85,49,139,46,71,37,195,41*6D
$GLGSV,3,2,09,87,20,311,44,78,20,001,41,69,19,037,42,77,13,302,39*66
$GLGSV,3,3,09,79,03,047,30*51
$GNRMC,122048.000,A,5939.1595,N,01756.1258,E,012.0,272.4,250624,,,A*7F
$GNVTG,272.4,T,,M,012.0,N,022.2,K,A*11
$GNZDA,122048.000,25,06,2024,00,00*40
$PSTI,20,1,1,1,0,A,0,1,26.63,100.00,3.48,0.00*62
$GNGGA,122049.000,5939.1594,N,01756.1199,E,1,17,0.7,41.7,M,25.4,M,,0000*74
$GNGLL,5939.1594,N,01756.1199,E,122049.000,A,A*41
$GNGSA,A,3,14,17,21,02,03,22,32,08,10,,,,1.3,0.7,1.1*20
$GNGSA,A,3,86,85,87,71,70,77,78,69,,,,,1.3,0.7,1.1*24
$GNRMC,122049.000,A,5939.1594,N,01756.1199,E,010.7,268.6,250624,,,A*7D
$GNVTG,268.6,T,,M,010.7,N,019.8,K,A*1F
$GNZDA,122049.000,25,06,2024,00,00*41
$PSTI,20,1,1,1,0,A,0,1,26.63,100.00,-3.85,0.00*4E
$GNGGA,122050.000,5939.1589,N,01756.1149,E,1,16,0.8,41.7,M,25.4,M,,0000*73
$GNGLL,5939.1589,N,01756.1149,E,122050.000,A,A*48
$GNGSA,A,3,14,17,21,02,03,22,32,10,,,,,1.5,0.8,1.2*22
$GNGSA,A,3,86,85,87,71,70,77,78,69,,,,,1.5,0.8,1.2*2E
$GNRMC,122050.000,A,5939.1589,N,01756.1149,E,008.7,252.0,250624,,,A*72
$GNVTG,252.0,T,,M,008.7,N,016.2,K,A*1C
$GNZDA,122050.000,25,06,2024,00,00*49
$PSTI,20,1,1,1,0,A,0,1,26.63,100.00,-16.54,0.00*76
$GNGGA,122051.000,5939.1580,N,01756.1109,E,1,16,0.9,41.7,M,25.4,M,,0000*7E
$GNGLL,5939.1580,N,01756.1109,E,122051.000,A,A*44
$GNGSA,A,3,14,17,21,02,22,32,10,24,,,,,1.6,0.9,1.3*24
$GNGSA,A,3,86,85,87,71,70,77,78,69,,,,,1.6,0.9,1.3*2D
$GPGSV,3,1,11,21,77,178,43,02,73,259,45,32,47,080,50,10,25,069,42*78
$GPGSV,3,2,11,03,25,238,27,08,24,186,26,17,23,316,45,22,21,309,45*7F
$GPGSV,3,3,11,14,17,286,45,24,08,009,37,28,00,000,18*47
$GLGSV,3,1,09,70,74,108,32,86,72,298,45,85,49,139,44,71,37,195,43*68
$GLGSV,3,2,09,87,20,311,41,78,20,001,37,69,19,037,43,77,13,302,33*69
$GLGSV,3,3,09,79,03,047,36*57
$GNRMC,122051.000,A,5939.1580,N,01756.1109,E,007.1,236.6,250624,,,A*73
$GNVTG,236.6,T,,M,007.1,N,013.1,K,A*17
$GNZDA,122051.000,25,06,2024,00,00*48
$PSTI,20,1,1,1,0,A,0,1,26.63,100.00,-15.38,0.00*7F
$GNGGA,122052.000,5939.1567,N,01756.1082,E,1,16,0.9,41.7,M,25.4,M,,0000*76
$GNGLL,5939.1567,N,01756.1082,E,122052.000,A,A*4C
$GNGSA,A,3,14,17,21,02,22,32,10,24,,,,,1.6,0.9,1.3*24
$GNGSA,A,3,86,85,87,71,70,77,78,69,,,,,1.6,0.9,1.3*2D
$GNRMC,122052.000,A,5939.1567,N,01756.1082,E,005.5,221.7,250624,,,A*7A
$GNVTG,221.7,T,,M,005.5,N,010.2,K,A*16
$GNZDA,122052.000,25,06,2024,00,00*4B
$PSTI,20,1,1,1,0,A,0,1,26.63,100.00,-14.45,0.00*74
$GNGGA,122053.000,5939.1552,N,01756.1065,E,1,16,0.9,41.7,M,25.4,M,,0000*78
$GNGLL,5939.1552,N,01756.1065,E,122053.000,A,A*42
$GNGSA,A,3,14,17,21,02,22,32,10,24,,,,,1.6,0.9,1.3*24
$GNGSA,A,3,86,85,87,71,70,77,78,69,,,,,1.6,0.9,1.3*2D
$GNRMC,122053.000,A,5939.1552,N,01756.1065,E,004.7,214.5,250624,,,A*73
$GNVTG,214.5,T,,M,004.7,N,008.7,K,A*1D
$GNZDA,122053.000,25,06,2024,00,00*4A
$PSTI,20,1,1,1,0,A,0,1,26.63,100.00,-7.01,0.00*46
$GNGGA,122054.000,5939.1539,N,01756.1048,E,1,16,0.9,41.8,M,25.4,M,,0000*72
$GNGLL,5939.1539,N,01756.1048,E,122054.000,A,A*47
$GNGSA,A,3,14,17,21,02,22,32,10,24,,,,,1.6,0.9,1.3*24
$GNGSA,A,3,86,85,87,71,70,77,78,69,,,,,1.6,0.9,1.3*2D
$GPGSV,3,1,11,21,77,178,43,02,73,259,44,32,47,080,48,10,25,069,45*77
$GPGSV,3,2,11,03,25,238,27,08,24,186,26,17,23,316,44,22,21,309,46*7D
$GPGSV,3,3,11,14,17,286,45,24,08,009,38,28,00,000,15*45
$GLGSV,3,1,09,70,74,108,33,86,72,298,46,85,49,139,43,71,37,195,40*6E
$GLGSV,3,2,09,87,20,311,35,78,20,000,42,69,19,037,46,77,12,302,25*6A
$GLGSV,3,3,09,79,03,047,32*53
$GNRMC,122054.000,A,5939.1539,N,01756.1048,E,004.4,218.5,250624,,,A*79
$GNVTG,218.5,T,,M,004.4,N,008.1,K,A*14
$GNZDA,122054.000,25,06,2024,00,00*4D
$PSTI,20,1,1,1,0,A,0,1,26.63,100.00,3.90,0.00*67
$GNGGA,122055.000,5939.1530,N,01756.1031,E,1,16,0.9,41.7,M,25.4,M,,0000*7B
$GNGLL,5939.1530,N,01756.1031,E,122055.000,A,A*41
$GNGSA,A,3,14,17,21,02,22,32,10,24,,,,,1.6,0.9,1.3*24
$GNGSA,A,3,86,85,87,71,70,77,78,69,,,,,1.6,0.9,1.3*2D
$GNRMC,122055.000,A,5939.1530,N,01756.1031,E,004.0,227.0,250624,,,A*72
$GNVTG,227.0,T,,M,004.0,N,007.4,K,A*13
$GNZDA,122055.000,25,06,2024,00,00*4C
$PSTI,20,1,1,1,0,A,0,1,26.63,100.00,8.47,0.00*66
$GNGGA,122056.000,5939.1524,N,01756.1015,E,1,16,0.9,41.6,M,25.4,M,,0000*7A
$GNGLL,5939.1524,N,01756.1015,E,122056.000,A,A*41
$GNGSA,A,3,14,17,21,02,03,22,32,10,24,,,,1.6,0.9,1.3*27
$GNGSA,A,3,86,85,87,70,77,78,69,,,,,,1.6,0.9,1.3*2B
$GNRMC,122056.000,A,5939.1524,N,01756.1015,E,003.7,233.9,250624,,,A*7E
$GNVTG,233.9,T,,M,003.7,N,006.8,K,A*12
$GNZDA,122056.000,25,06,2024,00,00*4F
$PSTI,20,1,1,1,0,A,0,1,26.63,100.00,6.89,0.00*6A
$GNGGA,122057.000,5939.1520,N,01756.1000,E,1,16,0.9,41.5,M,25.4,M,,0000*78
$GNGLL,5939.1520,N,01756.1000,E,122057.000,A,A*40
$GNGSA,A,3,14,17,21,02,03,22,32,10,24,,,,1.6,0.9,1.3*27
$GNGSA,A,3,86,85,87,70,77,78,69,,,,,,1.6,0.9,1.3*2B
$GPGSV,3,1,11,21,77,178,43,02,73,259,46,32,47,080,51,10,25,069,42*7A
$GPGSV,3,2,11,03,25,238,25,08,24,186,27,17,23,316,45,22,21,309,45*7C
$GPGSV,3,3,11,14,17,286,35,24,08,009,40,28,00,000,10*48
$GLGSV,3,1,09,70,74,108,32,86,72,298,45,85,49,139,46,71,37,195,29*66
$GLGSV,3,2,09,87,20,311,39,78,20,000,42,69,19,037,44,77,12,302,30*60
$GLGSV,3,3,09,79,03,047,28*58
$GNRMC,122057.000,A,5939.1520,N,01756.1000,E,004.0,240.0,250624,,,A*72
$GNVTG,240.0,T,,M,004.0,N,007.4,K,A*12
$GNZDA,122057.000,25,06,2024,00,00*4E
$PSTI,20,1,1,1,0,A,0,1,26.63,100.00,6.07,0.00*6C
$GNGGA,122058.000,5939.1516,N,01756.0982,E,1,16,0.9,41.5,M,25.4,M,,0000*70
$GNGLL,5939.1516,N,01756.0982,E,122058.000,A,A*48
$GNGSA,A,3,14,17,21,02,03,22,32,10,24,,,,1.6,0.9,1.3*27
$GNGSA,A,3,86,85,87,70,77,78,69,,,,,,1.6,0.9,1.3*2B
$GNRMC,122058.000,A,5939.1516,N,01756.0982,E,003.9,246.2,250624,,,A*70
$GNVTG,246.2,T,,M,003.9,N,007.3,K,A*1F
$GNZDA,122058.000,25,06,2024,00,00*41
$PSTI,20,1,1,1,0,A,0,1,26.63,100.00,6.17,0.00*6D
$GNGGA,122059.000,5939.1514,N,01756.0965,E,1,16,0.9,41.4,M,25.4,M,,0000*7B
$GNGLL,5939.1514,N,01756.0965,E,122059.000,A,A*42
$GNGSA,A,3,14,17,21,02,03,22,32,10,24,,,,1.6,0.9,1.3*27
$GNGSA,A,3,86,85,87,70,77,78,69,,,,,,1.6,0.9,1.3*2B
$GNRMC,122059.000,A,5939.1514,N,01756.0965,E,003.7,252.6,250624,,,A*75
$GNVTG,252.6,T,,M,003.7,N,006.9,K,A*1B
$GNZDA,122059.000,25,06,2024,00,00*40
$PSTI,20,1,1,1,0,A,0,1,26.63,100.00,6.34,0.00*6C
$GNGGA,122100.000,5939.1514,N,01756.0950,E,1,16,0.7,41.2,M,25.4,M,,0000*78
$GNGLL,5939.1514,N,01756.0950,E,122100.000,A,A*49
$GNGSA,A,3,14,17,21,02,03,22,32,08,10,24,,,1.3,0.7,1.1*26
$GNGSA,A,3,86,85,87,70,78,69,,,,,,,1.3,0.7,1.1*22
$GPGSV,3,1,11,21,77,178,25,02,73,259,25,32,47,080,39,10,25,069,45*76
$GPGSV,3,2,11,03,25,238,24,08,24,186,30,17,23,316,30,22,21,309,30*7B
$GPGSV,3,3,11,14,17,286,31,24,08,009,40,28,00,000,07*4A
$GLGSV,3,1,09,70,74,108,25,86,72,298,25,85,49,139,36,71,37,195,25*6D
$GLGSV,3,2,09,87,20,311,28,78,20,000,42,69,19,037,43,77,12,302,24*62
$GLGSV,3,3,09,79,03,047,32*53
$GNRMC,122100.000,A,5939.1514,N,01756.0950,E,003.4,256.4,250624,,,A*7B
$GNVTG,256.4,T,,M,003.4,N,006.3,K,A*14
$GNZDA,122100.000,25,06,2024,00,00*4D
$PSTI,20,1,1,1,0,A,0,1,26.63,100.00,3.54,0.00*6F
$GNGGA,122101.000,5939.1513,N,01756.0934,E,1,15,0.9,41.2,M,25.4,M,,0000*71
$GNGLL,5939.1513,N,01756.0934,E,122101.000,A,A*4D
$GNGSA,A,3,14,17,21,02,22,32,10,24,,,,,1.6,0.9,1.3*24
$GNGSA,A,3,86,85,87,71,70,78,69,,,,,,1.6,0.9,1.3*2D
$GNRMC,122101.000,A,5939.1513,N,01756.0934,E,003.1,256.6,250624,,,A*78
$GNVTG,256.6,T,,M,003.1,N,005.7,K,A*14
$GNZDA,122101.000,25,06,2024,00,00*4C
$PSTI,20,1,1,1,0,A,0,1,26.63,100.00,0.17,0.00*6B
$GNGGA,122102.000,5939.1511,N,01756.0923,E,1,13,0.8,41.2,M,25.4,M,,0000*71
$GNGLL,5939.1511,N,01756.0923,E,122102.000,A,A*4A
$GNGSA,A,3,14,17,21,02,22,32,08,10,24,,,,1.6,0.8,1.3*2D
$GNGSA,A,3,85,71,78,69,,,,,,,,,1.6,0.8,1.3*2A
$GNRMC,122102.000,A,5939.1511,N,01756.0923,E,002.0,256.7,250624,,,A*7E
$GNVTG,256.7,T,,M,002.0,N,003.8,K,A*1C
$GNZDA,122102.000,25,06,2024,00,00*4F
$PSTI,20,1,1,1,0,A,0,1,26.63,100.00,0.17,0.00*6B
$GNGGA,122103.000,5939.1510,N,01756.0913,E,1,10,1.4,41.1,M,25.4,M,,0000*7F
$GNGLL,5939.1510,N,01756.0913,E,122103.000,A,A*49
$GNGSA,A,3,14,17,21,22,32,10,24,,,,,,2.9,1.4,2.5*23
$GNGSA,A,3,85,78,69,,,,,,,,,,2.9,1.4,2.5*28
$GPGSV,3,1,11,21,77,178,24,02,73,259,21,32,47,080,31,10,25,069,39*70
$GPGSV,3,2,11,03,25,238,22,08,24,186,22,17,23,316,24,22,21,309,24*7E
$GPGSV,3,3,11,14,17,286,25,24,08,009,28,28,00,000,06*40
$GLGSV,3,1,09,70,74,108,19,86,72,297,23,85,49,139,25,71,37,195,23*6F
$GLGSV,3,2,09,87,20,311,24,78,20,000,28,69,19,037,27,77,12,302,21*65
$GLGSV,3,3,09,79,03,047,27*57
$GNRMC,122103.000,A,5939.1510,N,01756.0913,E,001.8,256.9,250624,,,A*78
$GNVTG,256.9,T,,M,001.8,N,003.4,K,A*15
$GNZDA,122103.000,25,06,2024,00,00*4E
$PSTI,20,1,1,1,0,A,0,1,26.63,100.00,0.14,0.00*68
$GNGGA,122104.000,5939.1509,N,01756.0903,E,1,10,0.9,41.1,M,25.4,M,,0000*7D
$GNGLL,5939.1509,N,01756.0903,E,122104.000,A,A*47
$GNGSA,A,3,17,02,22,32,08,10,24,,,,,,1.9,0.9,1.6*20
$GNGSA,A,3,85,78,69,,,,,,,,,,1.9,0.9,1.6*27
$GNRMC,122104.000,A,5939.1509,N,01756.0903,E,001.7,257.0,250624,,,A*71
$GNVTG,257.0,T,,M,001.7,N,003.1,K,A*17
$GNZDA,122104.000,25,06,2024,00,00*49
$PSTI,20,1,1,1,0,A,0,1,26.63,100.00,0.11,0.00*6D
$GNGGA,122105.000,5939.1508,N,01756.0896,E,1,06,2.5,41.0,M,25.4,M,,0000*78
$GNGLL,5939.1508,N,01756.0896,E,122105.000,A,A*4A
$GNGSA,A,3,32,10,24,,,,,,,,,,5.0,2.5,4.3*2F
$GNGSA,A,3,85,78,69,,,,,,,,,,5.0,2.5,4.3*24
$GNRMC,122105.000,A,5939.1508,N,01756.0896,E,001.0,257.1,250624,,,A*7A
$GNVTG,257.1,T,,M,001.0,N,001.9,K,A*1B
$GNZDA,122105.000,25,06,2024,00,00*48
$PSTI,20,1,1,1,0,A,0,1,26.63,100.00,0.18,0.00*64
$GNGGA,122106.000,5939.1508,N,01756.0894,E,1,06,2.9,40.9,M,25.4,M,,0000*7D
$GNGLL,5939.1508,N,01756.0894,E,122106.000,A,A*4B
$GNGSA,A,3,22,32,10,24,,,,,,,,,5.6,2.9,4.8*2E
$GNGSA,A,3,78,69,,,,,,,,,,,5.6,2.9,4.8*28
$GPGSV,3,1,11,21,77,178,20,02,73,258,23,32,47,080,26,03,26,239,19*75
$GPGSV,3,2,11,10,25,069,26,08,24,186,23,17,23,316,20,22,21,309,22*7D
$GPGSV,3,3,11,14,17,286,21,24,08,009,26,28,00,000,05*49
$GLGSV,3,1,09,70,74,108,15,86,72,297,20,85,49,139,23,71,37,195,20*65
$GLGSV,3,2,09,87,20,311,21,78,20,000,24,69,19,037,28,77,12,302,17*66
$GLGSV,3,3,09,79,03,047,22*52
$GNRMC,122106.000,A,5939.1508,N,01756.0894,E,000.1,257.2,250624,,,A*78
$GNVTG,257.2,T,,M,000.1,N,000.3,K,A*13
$GNZDA,122106.000,25,06,2024,00,00*4B
$PSTI,20,1,1,1,0,A,0,1,26.63,100.00,0.07,0.00*6A
$GNGGA,122107.000,5939.1508,N,01756.0893,E,1,05,7.3,40.9,M,25.4,M,,0000*77
$GNGLL,5939.1508,N,01756.0893,E,122107.000,A,A*4D
$GNGSA,A,3,32,10,24,,,,,,,,,,10.2,7.3,7.2*18
$GNGSA,A,3,78,69,,,,,,,,,,,10.2,7.3,7.2*1E
$GNRMC,122107.000,A,5939.1508,N,01756.0893,E,000.5,257.2,250624,,,A*7A
$GNVTG,257.2,T,,M,000.5,N,001.0,K,A*15
$GNZDA,122107.000,25,06,2024,00,00*4A
$PSTI,20,1,1,1,0,A,0,1,26.63,100.00,0.06,0.00*6B
$GNGGA,122108.000,5939.1506,N,01756.0879,E,1,07,3.0,40.8,M,25.4,M,,0000*76
$GNGLL,5939.1506,N,01756.0879,E,122108.000,A,A*48
$GNGSA,A,3,17,32,10,24,,,,,,,,,5.7,3.0,4.8*21
$GNGSA,A,3,87,78,69,,,,,,,,,,5.7,3.0,4.8*2E
$GNRMC,122108.000,A,5939.1506,N,01756.0879,E,001.2,255.8,250624,,,A*71
$GNVTG,255.8,T,,M,001.2,N,002.2,K,A*1A
$GNZDA,122108.000,25,06,2024,00,00*45
$PSTI,20,1,1,1,0,A,0,1,26.63,100.00,-1.44,0.00*41
$GNGGA,122109.000,5939.1504,N,01756.0866,E,1,05,7.3,40.8,M,25.4,M,,0000*7E
$GNGLL,5939.1504,N,01756.0866,E,122109.000,A,A*45
$GNGSA,A,3,32,10,24,,,,,,,,,,10.2,7.3,7.2*18
$GNGSA,A,3,78,69,,,,,,,,,,,10.2,7.3,7.2*1E
$GPGSV,3,1,11,21,77,178,17,02,73,258,16,32,47,080,25,03,26,239,14*79
$GPGSV,3,2,11,10,25,069,25,08,24,186,18,17,23,316,18,22,21,309,20*7F
$GPGSV,3,3,11,14,17,286,,24,08,009,24,28,00,000,09*44
$GLGSV,3,1,09,70,74,108,10,86,72,297,18,85,49,139,20,71,37,195,17*6C
$GLGSV,3,2,09,87,20,311,19,78,20,000,24,69,19,037,25,77,12,302,14*63
$GLGSV,3,3,09,79,03,047,22*52
$GNRMC,122109.000,A,5939.1504,N,01756.0866,E,001.2,254.7,250624,,,A*72
$GNVTG,254.7,T,,M,001.2,N,002.3,K,A*15
$GNZDA,122109.000,25,06,2024,00,00*44
$PSTI,20,1,1,1,0,A,0,1,26.63,100.00,-1.10,0.00*40
$GNGGA,122110.000,5939.1502,N,01756.0859,E,1,04,9.8,40.7,M,25.4,M,,0000*77
$GNGLL,5939.1502,N,01756.0859,E,122110.000,A,A*47
$GNGSA,A,3,32,10,,,,,,,,,,,14.7,9.8,10.9*27
$GNGSA,A,3,78,69,,,,,,,,,,,14.7,9.8,10.9*27
$GNRMC,122110.000,A,5939.1502,N,01756.0859,E,001.1,254.7,250624,,,A*73
$GNVTG,254.7,T,,M,001.1,N,002.0,K,A*15
$GNZDA,122110.000,25,06,2024,00,00*4C
$PSTI,20,1,1,1,0,A,0,1,26.63,100.00,-0.03,0.00*43
$GNGGA,122111.000,5939.1502,N,01756.0854,E,1,05,7.3,40.7,M,25.4,M,,0000*7F
$GNGLL,5939.1502,N,01756.0854,E,122111.000,A,A*4B
$GNGSA,A,3,32,10,24,,,,,,,,,,10.2,7.3,7.2*18
$GNGSA,A,3,78,69,,,,,,,,,,,10.2,7.3,7.2*1E
$GNRMC,122111.000,A,5939.1502,N,01756.0854,E,000.9,254.8,250624,,,A*79
$GNVTG,254.8,T,,M,000.9,N,001.7,K,A*17
$GNZDA,122111.000,25,06,2024,00,00*4D
$PSTI,20,1,1,1,0,A,0,1,26.63,100.00,0.13,0.00*6F
$GNGGA,122112.000,5939.1501,N,01756.0850,E,1,05,7.3,40.6,M,25.4,M,,0000*7A
$GNGLL,5939.1501,N,01756.0850,E,122112.000,A,A*4F
$GNGSA,A,3,32,10,24,,,,,,,,,,10.2,7.3,7.1*1B
$GNGSA,A,3,78,69,,,,,,,,,,,10.2,7.3,7.1*1D
$GPGSV,3,1,11,21,77,178,15,02,73,258,13,32,47,080,24,03,26,239,*7A
$GPGSV,3,2,11,10,25,069,26,08,24,186,12,17,23,316,17,22,21,309,18*72
$GPGSV,3,3,11,14,17,285,,24,08,009,22,28,00,000,07*4F
$GLGSV,3,1,09,70,74,108,10,86,72,297,14,85,49,139,16,71,37,195,14*66
$GLGSV,3,2,09,87,20,311,17,78,20,000,23,69,19,037,25,77,12,302,12*6C
$GLGSV,3,3,09,79,03,047,17*54
$GNRMC,122112.000,A,5939.1501,N,01756.0850,E,000.7,255.0,250624,,,A*7A
$GNVTG,255.0,T,,M,000.7,N,001.3,K,A*14
$GNZDA,122112.000,25,06,2024,00,00*4E
$PSTI,20,1,1,1,0,A,0,1,26.63,100.00,0.23,0.00*6C
$GNGGA,122113.000,5939.1501,N,01756.0846,E,1,05,7.3,40.5,M,25.4,M,,0000*7F
$GNGLL,5939.1501,N,01756.0846,E,122113.000,A,A*49
$GNGSA,A,3,32,10,24,,,,,,,,,,10.2,7.3,7.1*1B
$GNGSA,A,3,78,69,,,,,,,,,,,10.2,7.3,7.1*1D
$GNRMC,122113.000,A,5939.1501,N,01756.0846,E,000.6,255.2,250624,,,A*7F
$GNVTG,255.2,T,,M,000.6,N,001.1,K,A*15
$GNZDA,122113.000,25,06,2024,00,00*4F
$PSTI,20,1,1,1,0,A,0,1,26.63,100.00,0.13,0.00*6F
$GNGGA,122114.000,5939.1501,N,01756.0845,E,1,04,9.8,40.4,M,25.4,M,,0000*7E
$GNGLL,5939.1501,N,01756.0845,E,122114.000,A,A*4D
$GNGSA,A,3,32,10,,,,,,,,,,,14.7,9.8,10.9*27
$GNGSA,A,3,78,69,,,,,,,,,,,14.7,9.8,10.9*27
$GNRMC,122114.000,A,5939.1501,N,01756.0845,E,000.4,255.3,250624,,,A*78
$GNVTG,255.3,T,,M,000.4,N,000.7,K,A*11
$GNZDA,122114.000,25,06,2024,00,00*48
$PSTI,20,1,1,1,0,A,0,1,26.63,100.00,0.12,0.00*6E
$GNGGA,122115.000,5939.1500,N,01756.0844,E,1,04,7.5,40.3,M,25.4,M,,0000*7B
$GNGLL,5939.1500,N,01756.0844,E,122115.000,A,A*4C
$GNGSA,A,3,32,10,24,,,,,,,,,,10.8,7.5,7.7*11
$GNGSA,A,3,69,,,,,,,,,,,,10.8,7.5,7.7*18
$GPGSV,3,1,11,21,77,177,11,02,73,258,14,32,47,080,24,03,26,239,*76
$GPGSV,3,2,11,10,25,069,24,08,24,186,13,17,23,316,,22,21,309,12*7D
$GPGSV,3,3,11,14,17,285,,24,08,009,20,28,00,000,13*48
$GLGSV,3,1,09,70,74,108,09,86,72,297,13,85,49,139,15,71,37,195,11*6F
$GLGSV,3,2,09,87,20,311,15,78,20,000,21,69,19,037,24,77,12,302,10*6F
$GLGSV,3,3,09,79,03,047,14*57
$GNRMC,122115.000,A,5939.1500,N,01756.0844,E,000.2,255.7,250624,,,A*7B
$GNVTG,255.7,T,,M,000.2,N,000.4,K,A*10
$GNZDA,122115.000,25,06,2024,00,00*49
$PSTI,20,1,1,1,0,A,0,1,26.63,100.00,0.46,0.00*6F
$GNGGA,122116.000,5939.1500,N,01756.0845,E,1,03,6.5,40.3,M,25.4,M,,0000*7F
$GNGLL,5939.1500,N,01756.0845,E,122116.000,A,A*4E
$GNGSA,A,2,32,10,,,,,,,,,,,6.6,6.5,1.0*2F
$GNGSA,A,2,69,,,,,,,,,,,,6.6,6.5,1.0*20
$GNRMC,122116.000,A,5939.1500,N,01756.0845,E,000.0,256.3,250624,,,A*7C
$GNVTG,256.3,T,,M,000.0,N,000.0,K,A*11
$GNZDA,122116.000,25,06,2024,00,00*4A
$PSTI,20,1,1,1,0,A,0,1,26.63,100.00,0.55,0.00*6D
$GNGGA,122117.000,5939.1500,N,01756.0845,E,6,03,6.5,40.3,M,25.4,M,,0000*79
$GNGLL,5939.1500,N,01756.0845,E,122117.000,A,E*4B
$GNGSA,A,2,32,10,,,,,,,,,,,6.6,6.5,1.0*2F
$GNGSA,A,2,69,,,,,,,,,,,,6.6,6.5,1.0*20
$GNRMC,122117.000,A,5939.1500,N,01756.0845,E,000.2,256.7,250624,,,E*7F
$GNVTG,256.7,T,,M,000.2,N,000.3,K,E*10
$GNZDA,122117.000,25,06,2024,00,00*4B
$PSTI,20,1,1,1,0,E,0,1,26.63,100.00,0.44,0.00*69
$GNGGA,122118.000,5939.1501,N,01756.0850,E,1,04,7.5,40.3,M,25.4,M,,0000*72
$GNGLL,5939.1501,N,01756.0850,E,122118.000,A,A*45
$GNGSA,A,3,32,10,24,,,,,,,,,,10.8,7.5,7.7*11
$GNGSA,A,3,69,,,,,,,,,,,,10.8,7.5,7.7*18
$GPGSV,3,1,11,21,77,177,08,02,73,258,12,32,47,080,23,03,26,239,*7F
$GPGSV,3,2,11,10,25,069,22,08,24,186,11,17,23,316,,22,21,308,*7B
$GPGSV,3,3,11,14,17,285,,24,08,009,18,28,00,000,10*40
$GLGSV,3,1,09,70,74,108,,86,72,297,15,85,49,139,14,71,37,195,11*61
$GLGSV,3,2,09,78,20,000,18,87,20,311,13,69,19,037,23,77,12,302,*65
$GLGSV,3,3,09,79,03,047,11*52
$GNRMC,122118.000,A,5939.1501,N,01756.0850,E,000.4,257.3,250624,,,A*72
$GNVTG,257.3,T,,M,000.4,N,000.7,K,A*13
$GNZDA,122118.000,25,06,2024,00,00*44
$PSTI,20,1,1,1,0,A,0,1,26.63,100.00,0.62,0.00*69
$GNGGA,122119.000,5939.1502,N,01756.0855,E,1,04,7.5,40.2,M,25.4,M,,0000*74
$GNGLL,5939.1502,N,01756.0855,E,122119.000,A,A*42
$GNGSA,A,3,32,10,24,,,,,,,,,,10.8,7.5,7.7*11
$GNGSA,A,3,69,,,,,,,,,,,,10.8,7.5,7.7*18
$GNRMC,122119.000,A,5939.1502,N,01756.0855,E,000.6,257.8,250624,,,A*7C
$GNVTG,257.8,T,,M,000.6,N,001.1,K,A*1D
$GNZDA,122119.000,25,06,2024,00,00*45
$PSTI,20,1,1,1,0,A,0,1,26.63,100.00,0.44,0.00*6D
$GNGGA,122120.000,5939.1503,N,01756.0863,E,1,03,6.5,40.2,M,25.4,M,,0000*7C
$GNGLL,5939.1503,N,01756.0863,E,122120.000,A,A*4C
$GNGSA,A,2,32,10,,,,,,,,,,,6.5,6.5,1.0*2C
$GNGSA,A,2,69,,,,,,,,,,,,6.5,6.5,1.0*23
$GNRMC,122120.000,A,5939.1503,N,01756.0863,E,000.9,258.3,250624,,,A*79
$GNVTG,258.3,T,,M,000.9,N,001.6,K,A*11
$GNZDA,122120.000,25,06,2024,00,00*4F
$PSTI,20,1,1,1,0,A,0,1,26.63,100.00,0.54,0.00*6C
$GNGGA,122121.000,5939.1503,N,01756.0870,E,1,04,6.0,40.2,M,25.4,M,,0000*7D
$GNGLL,5939.1503,N,01756.0870,E,122121.000,A,A*4F
$GNGSA,A,3,02,32,10,,,,,,,,,,10.5,6.0,8.7*13
$GNGSA,A,3,69,,,,,,,,,,,,10.5,6.0,8.7*1E
$GPGSV,3,1,11,21,77,177,,02,73,258,13,32,47,080,22,03,26,239,*77
$GPGSV,3,2,11,10,25,069,19,08,24,186,11,17,23,316,,22,21,308,*73
$GPGSV,3,3,11,14,17,285,,24,08,009,16,28,00,000,07*48
$GLGSV,3,1,09,70,74,108,,86,72,297,,85,49,139,12,71,37,195,*63
$GLGSV,3,2,09,87,20,311,11,78,20,000,15,69,19,037,22,77,12,302,*6B
$GLGSV,3,3,09,79,03,047,12*51
$GNRMC,122121.000,A,5939.1503,N,01756.0870,E,001.1,258.9,250624,,,A*79
$GNVTG,258.9,T,,M,001.1,N,002.0,K,A*17
$GNZDA,122121.000,25,06,2024,00,00*4E
$PSTI,20,1,1,1,0,A,0,1,26.63,100.00,0.59,0.00*61
$GNGGA,122122.000,5939.1504,N,01756.0879,E,6,04,6.0,40.2,M,25.4,M,,0000*77
$GNGLL,5939.1504,N,01756.0879,E,122122.000,A,E*46
$GNGSA,A,3,02,32,10,,,,,,,,,,10.5,6.0,8.7*13
$GNGSA,A,3,69,,,,,,,,,,,,10.5,6.0,8.7*1E
$GNRMC,122122.000,A,5939.1504,N,01756.0879,E,001.3,259.4,250624,,,E*7E
$GNVTG,259.4,T,,M,001.3,N,002.4,K,E*19
$GNZDA,122122.000,25,06,2024,00,00*4D
$PSTI,20,1,1,1,0,E,0,1,26.63,100.00,0.46,0.00*6B
$GNGGA,122123.000,5939.1505,N,01756.0888,E,6,04,6.0,40.2,M,25.4,M,,0000*79
$GNGLL,5939.1505,N,01756.0888,E,122123.000,A,E*48
$GNGSA,A,3,02,32,10,,,,,,,,,,10.5,6.0,8.7*13
$GNGSA,A,3,69,,,,,,,,,,,,10.5,6.0,8.7*1E
$GNRMC,122123.000,A,5939.1505,N,01756.0888,E,001.5,259.9,250624,,,E*7B
$GNVTG,259.9,T,,M,001.5,N,002.8,K,E*1E
$GNZDA,122123.000,25,06,2024,00,00*4C
$PSTI,20,1,1,1,0,E,0,1,26.63,100.00,0.47,0.00*6A
$GNGGA,122124.000,5939.1506,N,01756.0898,E,6,04,6.0,40.2,M,25.4,M,,0000*7C
$GNGLL,5939.1506,N,01756.0898,E,122124.000,A,E*4D
$GNGSA,A,3,02,32,10,,,,,,,,,,10.5,6.0,8.7*13
$GNGSA,A,3,69,,,,,,,,,,,,10.5,6.0,8.7*1E
$GPGSV,3,1,11,21,77,177,,02,73,258,13,32,47,080,22,03,26,239,*77
$GPGSV,3,2,11,10,25,069,19,08,24,186,11,17,23,316,,22,21,308,*73
$GPGSV,3,3,11,14,17,285,,24,08,009,16,28,00,000,07*48
$GLGSV,3,1,09,70,74,108,,86,72,297,,85,49,139,12,71,37,195,*63
$GLGSV,3,2,09,87,20,311,11,78,20,000,15,69,19,037,22,77,12,302,*6B
$GLGSV,3,3,09,79,03,047,12*51
$GNRMC,122124.000,A,5939.1506,N,01756.0898,E,001.7,260.3,250624,,,E*7C
$GNVTG,260.3,T,,M,001.7,N,003.1,K,E*14
$GNZDA,122124.000,25,06,2024,00,00*4B
$PSTI,20,1,1,1,0,E,0,1,26.63,100.00,0.43,0.00*6E
$GNGGA,122125.000,5939.1507,N,01756.0906,E,6,00,6.0,40.1,M,25.4,M,,0000*7D
$GNGLL,5939.1507,N,01756.0906,E,122125.000,A,E*4B
$GPGSA,A,2,,,,,,,,,,,,,10.5,6.0,8.7*0E
$GNRMC,122125.000,A,5939.1507,N,01756.0906,E,001.8,260.9,250624,,,E*7F
$GNVTG,260.9,T,,M,001.8,N,003.4,K,E*14
$GNZDA,122125.000,25,06,2024,00,00*4A
$PSTI,20,1,1,1,0,E,0,1,26.63,100.00,0.53,0.00*6F
$GNGGA,122126.000,5939.1508,N,01756.0918,E,6,00,6.0,40.1,M,25.4,M,,0000*7E
$GNGLL,5939.1508,N,01756.0918,E,122126.000,A,E*48
$GPGSA,A,2,,,,,,,,,,,,,10.5,6.0,8.7*0E
$GNRMC,122126.000,A,5939.1508,N,01756.0918,E,002.0,261.2,250624,,,E*7D
$GNVTG,261.2,T,,M,002.0,N,003.7,K,E*16
$GNZDA,122126.000,25,06,2024,00,00*49
$PSTI,20,1,1,1,0,E,0,1,26.63,100.00,0.38,0.00*62
$GNGGA,122127.000,5939.1508,N,01756.0928,E,6,00,6.0,40.1,M,25.4,M,,0000*7C
$GNGLL,5939.1508,N,01756.0928,E,122127.000,A,E*4A
$GPGSA,A,2,,,,,,,,,,,,,10.5,6.0,8.7*0E
$GPGSV,3,1,11,21,77,177,,02,73,258,08,32,47,080,18,03,26,239,*74
$GPGSV,3,2,11,10,25,069,20,08,24,186,,17,23,316,,22,21,308,*79
$GPGSV,3,3,11,14,17,285,,24,08,009,14,28,00,000,08*45
$GLGSV,3,1,09,70,74,107,,86,72,297,,85,49,139,,71,38,195,*60
$GLGSV,3,2,09,78,20,000,14,87,20,311,,69,19,037,17,77,12,302,*6C
$GLGSV,3,3,09,79,03,047,*52
$GNRMC,122127.000,A,5939.1508,N,01756.0928,E,002.1,261.7,250624,,,E*7B
$GNVTG,261.7,T,,M,002.1,N,004.0,K,E*12
$GNZDA,122127.000,25,06,2024,00,00*48
$PSTI,20,1,1,1,0,E,0,1,26.63,100.00,0.43,0.00*6E
$GNGGA,122128.000,5939.1510,N,01756.0944,E,6,00,6.0,40.1,M,25.4,M,,0000*70
$GNGLL,5939.1510,N,01756.0944,E,122128.000,A,E*46
$GPGSA,A,2,,,,,,,,,,,,,10.5,6.0,8.7*0E
$GNRMC,122128.000,A,5939.1510,N,01756.0944,E,002.4,262.1,250624,,,E*77
$GNVTG,262.1,T,,M,002.4,N,004.4,K,E*16
$GNZDA,122128.000,25,06,2024,00,00*47
$PSTI,20,1,1,1,0,E,0,1,26.63,100.00,0.44,0.00*69
$GNGGA,122129.000,5939.1509,N,01756.0943,E,6,00,6.0,40.1,M,25.4,M,,0000*7E
$GNGLL,5939.1509,N,01756.0943,E,122129.000,A,E*48
$GPGSA,A,2,,,,,,,,,,,,,10.5,6.0,8.7*0E
$GNRMC,122129.000,A,5939.1509,N,01756.0943,E,002.4,262.1,250624,,,E*79
$GNVTG,262.1,T,,M,002.4,N,004.4,K,E*16
$GNZDA,122129.000,25,06,2024,00,00*46
$PSTI,20,1,1,1,0,E,0,1,26.63,100.00,0.02,0.00*6B
$GNGGA,122130.000,5939.1509,N,01756.0941,E,6,00,6.0,40.1,M,25.4,M,,0000*74
$GNGLL,5939.1509,N,01756.0941,E,122130.000,A,E*42
$GPGSA,A,2,,,,,,,,,,,,,10.5,6.0,8.7*0E
$GPGSV,3,1,11,21,77,177,,02,73,258,,32,47,080,15,03,26,239,*71
$GPGSV,3,2,11,10,25,069,14,08,24,186,,17,23,316,,22,21,308,*7E
$GPGSV,3,3,11,14,17,285,,24,08,009,18,28,00,000,08*49
$GLGSV,3,1,09,70,74,107,,86,72,297,,85,49,139,,71,38,195,*60
$GLGSV,3,2,09,78,20,000,12,87,20,311,,69,19,037,15,77,12,302,10*69
$GLGSV,3,3,09,79,03,047,*52
$GNRMC,122130.000,A,5939.1509,N,01756.0941,E,002.3,262.2,250624,,,E*77
$GNVTG,262.2,T,,M,002.3,N,004.3,K,E*15
$GNZDA,122130.000,25,06,2024,00,00*4E
$PSTI,20,1,1,1,0,E,0,1,26.63,100.00,0.04,0.00*6D
$GNGGA,122131.000,5939.1507,N,01756.0931,E,6,00,6.0,40.1,M,25.4,M,,0000*7C
$GNGLL,5939.1507,N,01756.0931,E,122131.000,A,E*4A
$GPGSA,A,2,,,,,,,,,,,,,10.5,6.0,8.7*0E
$GNRMC,122131.000,A,5939.1507,N,01756.0931,E,002.1,262.1,250624,,,E*7E
$GNVTG,262.1,T,,M,002.1,N,004.0,K,E*17
$GNZDA,122131.000,25,06,2024,00,00*4F
$PSTI,20,1,1,1,0,E,0,1,26.63,100.00,-0.02,0.00*46
$GNGGA,122132.000,5939.1508,N,01756.0946,E,6,00,6.0,40.1,M,25.4,M,,0000*70
$GNGLL,5939.1508,N,01756.0946,E,122132.000,A,E*46
$GPGSA,A,2,,,,,,,,,,,,,10.5,6.0,8.7*0E
$GNRMC,122132.000,A,5939.1508,N,01756.0946,E,002.3,262.4,250624,,,E*75
$GNVTG,262.4,T,,M,002.3,N,004.3,K,E*13
$GNZDA,122132.000,25,06,2024,00,00*4C
$PSTI,20,1,1,1,0,E,0,1,26.63,100.00,0.26,0.00*6D
$GNGGA,122133.000,5939.1507,N,01756.0938,E,6,00,6.0,40.1,M,25.4,M,,0000*77
$GNGLL,5939.1507,N,01756.0938,E,122133.000,A,E*41
$GPGSA,A,2,,,,,,,,,,,,,10.5,6.0,8.7*0E
$GPGSV,3,1,11,21,77,177,,02,73,258,,32,47,080,12,03,26,239,*76
$GPGSV,3,2,11,10,25,069,,08,24,186,,17,23,316,,22,21,308,*7B
$GPGSV,3,3,11,14,17,285,,24,08,009,17,28,00,000,07*49
$GLGSV,3,1,09,70,74,107,,86,72,297,,85,49,139,,71,38,195,*60
$GLGSV,3,2,09,87,20,311,,78,20,000,,69,19,037,14,77,12,302,13*68
$GLGSV,3,3,09,79,03,047,*52
$GNRMC,122133.000,A,5939.1507,N,01756.0938,E,002.1,263.5,250624,,,E*70
$GNVTG,263.5,T,,M,002.1,N,004.0,K,E*12
$GNZDA,122133.000,25,06,2024,00,00*4D
$PSTI,20,1,1,1,0,E,0,1,26.63,100.00,1.14,0.00*6D
$GNGGA,122134.000,5939.1501,N,01756.0880,E,6,00,6.0,40.1,M,25.4,M,,0000*74
$GNGLL,5939.1501,N,01756.0880,E,122134.000,A,E*42
$GPGSA,A,2,,,,,,,,,,,,,10.5,6.0,8.7*0E
$GNRMC,122134.000,A,5939.1501,N,01756.0880,E,001.4,264.7,250624,,,E*70
$GNVTG,264.7,T,,M,001.4,N,002.6,K,E*11
$GNZDA,122134.000,25,06,2024,00,00*4A
$PSTI,20,1,1,1,0,E,0,1,26.63,100.00,1.16,0.00*6F
$GNGGA,122135.000,5939.1499,N,01756.0854,E,6,00,6.0,40.2,M,25.4,M,,0000*7F
$GNGLL,5939.1499,N,01756.0854,E,122135.000,A,E*4A
$GPGSA,A,2,,,,,,,,,,,,,10.5,6.0,8.7*0E
$GNRMC,122135.000,A,5939.1499,N,01756.0854,E,001.1,266.0,250624,,,E*78
$GNVTG,266.0,T,,M,001.1,N,002.0,K,E*17
$GNZDA,122135.000,25,06,2024,00,00*4B
$PSTI,20,1,1,1,0,E,0,1,26.63,100.00,1.23,0.00*69
$GNGGA,122136.000,5939.1498,N,01756.0848,E,6,00,6.0,40.1,M,25.4,M,,0000*73
$GNGLL,5939.1498,N,01756.0848,E,122136.000,A,E*45
$GPGSA,A,2,,,,,,,,,,,,,10.5,6.0,8.7*0E
$GPGSV,3,1,10,21,77,177,,02,73,258,,32,47,080,13,03,26,239,*76
$GPGSV,3,2,10,10,25,069,,08,24,186,,17,23,316,,22,21,308,*7A
$GPGSV,3,3,10,14,17,285,,24,08,009,16*74
$GLGSV,3,1,09,70,74,107,,86,72,297,,85,49,139,,71,38,195,*60
$GLGSV,3,2,09,87,20,311,,78,20,000,,69,19,037,14,77,12,302,10*6B
$GLGSV,3,3,09,79,04,047,*55
$GNRMC,122136.000,A,5939.1498,N,01756.0848,E,000.9,267.2,250624,,,E*7D
$GNVTG,267.2,T,,M,000.9,N,001.7,K,E*19
$GNZDA,122136.000,25,06,2024,00,00*48
$PSTI,20,1,1,1,0,E,0,1,26.63,100.00,1.21,0.00*6B
$GNGGA,122137.000,5939.1498,N,01756.0857,E,6,00,6.0,40.1,M,25.4,M,,0000*7C
$GNGLL,5939.1498,N,01756.0857,E,122137.000,A,E*4A
$GPGSA,A,2,,,,,,,,,,,,,10.5,6.0,8.7*0E
$GNRMC,122137.000,A,5939.1498,N,01756.0857,E,000.9,268.4,250624,,,E*7B
$GNVTG,268.4,T,,M,000.9,N,001.8,K,E*1F
$GNZDA,122137.000,25,06,2024,00,00*49
$PSTI,20,1,1,1,0,E,0,1,26.63,100.00,1.19,0.00*60
$GNGGA,122138.000,5939.1501,N,01756.0890,E,6,00,6.0,40.0,M,25.4,M,,0000*78
$GNGLL,5939.1501,N,01756.0890,E,122138.000,A,E*4F
$GPGSA,A,2,,,,,,,,,,,,,10.5,6.0,8.7*0E
$GNRMC,122138.000,A,5939.1501,N,01756.0890,E,001.3,269.4,250624,,,E*74
$GNVTG,269.4,T,,M,001.3,N,002.4,K,E*1A
$GNZDA,122138.000,25,06,2024,00,00*46
$PSTI,20,1,1,1,0,E,0,1,26.63,100.00,1.00,0.00*68
$GNGGA,122139.000,5939.1502,N,01756.0913,E,6,00,6.0,40.0,M,25.4,M,,0000*70
$GNGLL,5939.1502,N,01756.0913,E,122139.000,A,E*47
$GPGSA,A,2,,,,,,,,,,,,,10.5,6.0,8.7*0E
$GPGSV,3,1,10,21,77,177,,02,73,258,,32,47,080,13,03,26,239,*76
$GPGSV,3,2,10,10,25,069,,08,24,186,,17,23,316,,22,21,308,*7A
$GPGSV,3,3,10,14,17,285,,24,08,009,16*74
$GLGSV,3,1,09,70,74,107,,86,72,297,,85,49,139,,71,38,195,*60
$GLGSV,3,2,09,87,20,311,,78,20,000,,69,19,037,12,77,12,302,12*6F
$GLGSV,3,3,09,79,04,047,*55
$GNRMC,122139.000,A,5939.1502,N,01756.0913,E,001.5,270.1,250624,,,E*77
$GNVTG,270.1,T,,M,001.5,N,002.8,K,E*1D
$GNZDA,122139.000,25,06,2024,00,00*47
$PSTI,20,1,1,1,0,E,0,1,26.63,100.00,0.68,0.00*67
$GNGGA,122140.000,5939.1499,N,01756.0885,E,6,00,6.0,40.0,M,25.4,M,,0000*73
$GNGLL,5939.1499,N,01756.0885,E,122140.000,A,E*44
$GPGSA,A,2,,,,,,,,,,,,,10.5,6.0,8.7*0E
$GNRMC,122140.000,A,5939.1499,N,01756.0885,E,001.2,270.3,250624,,,E*71
$GNVTG,270.3,T,,M,001.2,N,002.3,K,E*13
$GNZDA,122140.000,25,06,2024,00,00*49
$PSTI,20,1,1,1,0,E,0,1,26.63,100.00,0.11,0.00*69
$GNGGA,122141.000,5939.1493,N,01756.0793,E,6,00,6.0,40.0,M,25.4,M,,0000*70
$GNGLL,5939.1493,N,01756.0793,E,122141.000,A,E*47
$GPGSA,A,2,,,,,,,,,,,,,10.5,6.0,8.7*0E
$GNRMC,122141.000,A,5939.1493,N,01756.0793,E,000.4,270.0,250624,,,E*76
$GNVTG,270.0,T,,M,000.4,N,000.7,K,E*11
$GNZDA,122141.000,25,06,2024,00,00*48
$PSTI,20,1,1,1,0,E,0,1,26.63,100.00,-0.28,0.00*4E
$GNGGA,122142.000,5939.1486,N,01756.0690,E,6,00,6.0,40.1,M,25.4,M,,0000*74
$GNGLL,5939.1486,N,01756.0690,E,122142.000,A,E*42
$GPGSA,A,2,,,,,,,,,,,,,10.5,6.0,8.7*0E
$GPGSV,3,1,10,21,77,177,,02,73,258,,32,47,080,11,03,26,239,*74
$GPGSV,3,2,10,10,25,069,,08,24,186,,17,23,316,,22,21,308,*7A
$GPGSV,3,3,10,14,17,285,,24,08,009,15*77
$GLGSV,3,1,09,70,74,107,,86,72,297,,85,48,139,,71,38,195,*61
$GLGSV,3,2,09,87,21,311,,78,20,000,,69,19,037,,77,12,302,08*66
$GLGSV,3,3,09,79,04,047,*55
$GNRMC,122142.000,A,5939.1486,N,01756.0690,E,000.7,269.6,250624,,,E*7E
$GNVTG,269.6,T,,M,000.7,N,001.3,K,E*19
$GNZDA,122142.000,25,06,2024,00,00*4B
$PSTI,20,1,1,1,0,E,0,1,26.63,100.00,-0.29,0.00*4F
$GNGGA,122143.000,5939.1483,N,01756.0622,E,6,00,6.0,40.1,M,25.4,M,,0000*79
$GNGLL,5939.1483,N,01756.0622,E,122143.000,A,E*4F
$GPGSA,A,2,,,,,,,,,,,,,10.5,6.0,8.7*0E
$GNRMC,122143.000,A,5939.1483,N,01756.0622,E,001.3,269.4,250624,,,E*74
$GNVTG,269.4,T,,M,001.3,N,002.5,K,E*1B
$GNZDA,122143.000,25,06,2024,00,00*4A
$PSTI,20,1,1,1,0,E,0,1,26.63,100.00,-0.20,0.00*46
$GNGGA,122144.000,5939.1480,N,01756.0559,E,6,00,6.0,40.0,M,25.4,M,,0000*73
$GNGLL,5939.1480,N,01756.0559,E,122144.000,A,E*44
$GPGSA,A,2,,,,,,,,,,,,,10.5,6.0,8.7*0E
$GNRMC,122144.000,A,5939.1480,N,01756.0559,E,001.9,269.0,250624,,,E*71
$GNVTG,269.0,T,,M,001.9,N,003.6,K,E*17
$GNZDA,122144.000,25,06,2024,00,00*4D
$PSTI,20,1,1,1,0,E,0,1,26.63,100.00,-0.30,0.00*47
$GNGGA,122145.000,5939.1478,N,01756.0530,E,6,00,6.0,40.0,M,25.4,M,,0000*7A
$GNGLL,5939.1478,N,01756.0530,E,122145.000,A,E*4D
$GPGSA,A,2,,,,,,,,,,,,,10.5,6.0,8.7*0E
$GPGSV,3,1,10,21,77,177,,02,73,258,,32,47,080,09,03,26,239,*7D
$GPGSV,3,2,10,10,25,069,,08,24,186,,17,23,316,,22,21,308,*7A
$GPGSV,3,3,10,14,17,285,,24,08,009,15*77
$GLGSV,3,1,09,70,74,107,,86,72,297,,85,48,139,,71,38,195,*61
$GLGSV,3,2,09,87,21,311,,78,20,000,,69,19,037,,77,12,302,*6E
$GLGSV,3,3,09,79,04,047,*55
$GNRMC,122145.000,A,5939.1478,N,01756.0530,E,002.2,269.0,250624,,,E*70
$GNVTG,269.0,T,,M,002.2,N,004.1,K,E*1F
$GNZDA,122145.000,25,06,2024,00,00*4C
$PSTI,20,1,1,1,0,E,0,1,26.63,100.00,0.01,0.00*68
$GNGGA,122146.000,5939.1478,N,01756.0514,E,6,00,6.0,40.0,M,25.4,M,,0000*7F
$GNGLL,5939.1478,N,01756.0514,E,122146.000,A,E*48
$GPGSA,A,2,,,,,,,,,,,,,10.5,6.0,8.7*0E
$GNRMC,122146.000,A,5939.1478,N,01756.0514,E,002.3,269.6,250624,,,E*72
$GNVTG,269.6,T,,M,002.3,N,004.3,K,E*1A
$GNZDA,122146.000,25,06,2024,00,00*4F
$PSTI,20,1,1,1,0,E,0,1,26.63,100.00,0.54,0.00*68
$GNGGA,122147.000,5939.1479,N,01756.0509,E,6,00,6.0,40.0,M,25.4,M,,0000*73
$GNGLL,5939.1479,N,01756.0509,E,122147.000,A,E*44
$GPGSA,A,2,,,,,,,,,,,,,10.5,6.0,8.7*0E
$GNRMC,122147.000,A,5939.1479,N,01756.0509,E,002.4,270.4,250624,,,E*73
$GNVTG,270.4,T,,M,002.4,N,004.5,K,E*11
$GNZDA,122147.000,25,06,2024,00,00*4E
$PSTI,20,1,1,1,0,E,0,1,26.63,100.00,0.79,0.00*67
$GNGGA,122148.000,5939.1479,N,01756.0508,E,6,00,6.0,40.0,M,25.4,M,,0000*7D
$GNGLL,5939.1479,N,01756.0508,E,122148.000,A,E*4A
$GPGSA,A,2,,,,,,,,,,,,,10.5,6.0,8.7*0E
$GPGSV,3,1,10,21,77,177,,02,73,258,,32,47,080,06,03,26,239,*72
$GPGSV,3,2,10,10,25,069,,08,24,186,,17,23,316,,22,21,308,*7A
$GPGSV,3,3,10,14,17,285,,24,08,009,15*77
$GLGSV,3,1,09,70,74,107,,86,72,297,,85,48,139,,71,38,195,*61
$GLGSV,3,2,09,87,21,311,,78,20,000,,69,19,037,,77,12,302,*6E
$GLGSV,3,3,09,79,04,047,*55
$GNRMC,122148.000,A,5939.1479,N,01756.0508,E,002.4,271.2,250624,,,E*7A
$GNVTG,271.2,T,,M,002.4,N,004.5,K,E*16
$GNZDA,122148.000,25,06,2024,00,00*41
$PSTI,20,1,1,1,0,E,0,1,26.63,100.00,0.78,0.00*66
$GNGGA,122149.000,5939.1480,N,01756.0504,E,6,00,6.0,40.1,M,25.4,M,,0000*77
$GNGLL,5939.1480,N,01756.0504,E,122149.000,A,E*41
$GPGSA,A,2,,,,,,,,,,,,,10.5,6.0,8.7*0E
$GNRMC,122149.000,A,5939.1480,N,01756.0504,E,002.5,271.9,250624,,,E*7B
$GNVTG,271.9,T,,M,002.5,N,004.5,K,E*1C
$GNZDA,122149.000,25,06,2024,00,00*40
$PSTI,20,1,1,1,0,E,0,1,26.63,100.00,0.76,0.00*68
$GNGGA,122150.000,5939.1481,N,01756.0530,E,6,00,6.0,40.0,M,25.4,M,,0000*78
$GNGLL,5939.1481,N,01756.0530,E,122150.000,A,E*4F
$GPGSA,A,2,,,,,,,,,,,,,10.5,6.0,8.7*0E
$GNRMC,122150.000,A,5939.1481,N,01756.0530,E,002.2,272.7,250624,,,E*7F
$GNVTG,272.7,T,,M,002.2,N,004.0,K,E*13
$GNZDA,122150.000,25,06,2024,00,00*48
$PSTI,20,1,1,1,0,E,0,1,26.63,100.00,0.76,0.00*68
$GNGGA,122151.000,5939.1482,N,01756.0527,E,6,00,6.0,40.0,M,25.4,M,,0000*7C
$GNGLL,5939.1482,N,01756.0527,E,122151.000,A,E*4B
$GPGSA,A,2,,,,,,,,,,,,,10.5,6.0,8.7*0E
$GPGSV,3,1,10,21,77,177,,02,73,258,,32,47,080,08,03,26,239,*7C
$GPGSV,3,2,10,10,25,069,,08,24,186,,17,23,316,,22,21,308,*7A
$GPGSV,3,3,10,14,17,285,,24,08,009,13*71
$GLGSV,3,1,09,70,74,107,,86,72,297,,85,48,139,,71,38,195,*61
$GLGSV,3,2,09,87,21,311,,78,20,000,,69,19,037,,77,12,302,*6E
$GLGSV,3,3,09,79,04,047,*55
$GNRMC,122151.000,A,5939.1482,N,01756.0527,E,002.2,272.8,250624,,,E*74
$GNVTG,272.8,T,,M,002.2,N,004.0,K,E*1C
$GNZDA,122151.000,25,06,2024,00,00*49
$PSTI,20,1,1,1,0,E,0,1,26.63,100.00,0.00,0.00*69
$GNGGA,122152.000,5939.1482,N,01756.0493,E,6,00,6.0,40.0,M,25.4,M,,0000*71
$GNGLL,5939.1482,N,01756.0493,E,122152.000,A,E*46
$GPGSA,A,2,,,,,,,,,,,,,10.5,6.0,8.7*0E
$GNRMC,122152.000,A,5939.1482,N,01756.0493,E,002.4,272.9,250624,,,E*7E
$GNVTG,272.9,T,,M,002.4,N,004.4,K,E*1F
$GNZDA,122152.000,25,06,2024,00,00*4A
$PSTI,20,1,1,1,0,E,0,1,26.63,100.00,0.08,0.00*61
$GNGGA,122153.000,5939.1480,N,01756.0414,E,6,00,6.0,40.0,M,25.4,M,,0000*7D
$GNGLL,5939.1480,N,01756.0414,E,122153.000,A,E*4A
$GPGSA,A,2,,,,,,,,,,,,,10.5,6.0,8.7*0E
